þþÿÿÿþÿ$PSRFTXT,Version:GSW3.1.1LowV_3.1.00.07-C23B1.00 

$PSRFTXT,Version2:F-GPS-03-0506224

$PSRFTXT,WAAS Enable

$PSRFTXT,TOW:  0

$PSRFTXT,WK:   1313

$PSRFTXT,POS:  6378137 0 0

$PSRFÔþÿ$PSRFTXT,Version:GSW3.1.1LowV_3.1.00.07-C23B1.00 

$PSRFTXT,Version2:F-GPS-03-0506224

$PSRFTXT,WAAS Enable

$PSRFTXT,TOW:  0

$PSRFTXT,WK:   1313

$PSRFTXT,POS:  6378137 0 0

$PSRFTXT,CLK:  96250

$PSRFTXT,CHNL: 12

$PSRFTXT,Baud rate: 4800  System clock: -1695.703MHz

$GPGGA,235948.044,,,,,0,00,,,M,0.0,M,,0000*57

$GPGSA,A,1,,,,,,,,,,,,,,,*1E

$GPRMC,235948.044,V,,,,,,,050305,,*2D

$PSRFTXT,Version:GSW3.1.1LowV_3.1.00.07-C23B1.00 

$PSRFTXT,Version2:F-GPS-03-0506224

$PSRFTXT,WAAS Enable

$PSRFTXT,TOW:  0

$PSRFTXT,WK:   1313

$PSRFTXT,POS:  6378137 0 0

$PSRFTXT,CLK:  96250

$PSRFTXT,CHNL: 12

$PSRFTXT,Baud rate: 4800  System clock: -1695.703MHz

$GPGGA,235948.041,,,,,0,00,,,M,0.0,M,,0000*52

$GPGSA,A,1,,,,,,,,,,,,,,,*1E

$GPRMC,235948.041,V,,,,,,,050305,,*28

$GPGGA,235949.038,,,,,0,00,,,M,0.0,M,,0000*5D

$GPGSA,A,1,,,,,,,,,,,,,,,*1E

$GPRMC,235949.038,V,,,,,,,050305,,*27

$GPGGA,235950.032,,,,,0,00,,,M,0.0,M,,0000*5F

$GPGSA,A,1,,,,,,,,,,,,,,,*1E

$GPRMC,235950.032,V,,,,,,,050305,,*25

$GPGGA,235951.032,,,,,0,00,,,M,0.0,M,,0000*5E

$GPGSA,A,1,,,,,,,,,,,,,,,*1E

$GPRMC,235951.032,V,,,,,,,050305,,*24

$GPGGA,235952.032,,,,,0,00,,,M,0.0,M,,0000*5D

$GPGSA,A,1,,,,,,,,,,,,,,,*1E

$GPGSV,3,1,12,20,00,000,,10,00,000,,25,00,000,,27,00,000,*79

$GPGSV,3,2,12,03,00,000,,31,00,000,,24,00,000,,15,00,000,*78

$GPGSV,3,3,12,16,00,000,,05,00,000,,01,00,000,,26,00,000,*7D

$GPRMC,235952.032,V,,,,,,,050305,,*27

$GPGGA,235953.032,,,,,0,00,,,M,0.0,M,,0000*5C

$GPGSA,A,1,,,,,,,,,,,,,,,*1E

$GPRMC,235953.032,V,,,,,,,050305,,*26

$GPGGA,235954.032,,,,,0,00,,,M,0.0,M,,0000*5B

$GPGSA,A,1,,,,,,,,,,,,,,,*1E

$GPRMC,235954.032,V,,,,,,,050305,,*21

$GPGGA,235955.032,,,,,0,00,,,M,0.0,M,,0000*5A

$GPGSA,A,1,,,,,,,,,,,,,,,*1E

$GPRMC,235955.032,V,,,,,,,050305,,*20

$GPGGA,235956.032,,,,,0,00,,,M,0.0,M,,0000*59

$GPGSA,A,1,,,,,,,,,,,,,,,*1E

$GPRMC,235956.032,V,,,,,,,050305,,*23

$GPGGA,235957.032,,,,,0,00,,,M,0.0,M,,0000*58

$GPGSA,A,1,,,,,,,,,,,,,,,*1E

$GPGSV,3,1,12,20,00,000,,10,00,000,,25,00,000,,27,00,000,*79

$GPGSV,3,2,12,03,00,000,,31,00,000,,24,00,000,,15,00,000,*78

$GPGSV,3,3,12,16,00,000,,05,00,000,,01,00,000,,26,00,000,*7D

$GPRMC,235957.032,V,,,,,,,050305,,*22

$GPGGA,235958.032,,,,,0,00,,,M,0.0,M,,0000*57

$GPGSA,A,1,,,,,,,,,,,,,,,*1E

$GPRMC,235958.032,V,,,,,,,050305,,*2D

$GPGGA,210442.588,,,,,0,00,,,M,0.0,M,,0000*52

$GPGSA,A,1,,,,,,,,,,,,,,,*1E

$GPRMC,210442.588,V,,,,,,,100305,,*2C

$GPGGA,210443.588,,,,,0,00,,,M,0.0,M,,0000*53

$GPGSA,A,1,,,,,,,,,,,,,,,*1E

$GPRMC,210443.588,V,,,,,,,100305,,*2D

$GPGGA,210444.588,,,,,0,00,,,M,0.0,M,,0000*54

$GPGSA,A,1,,,,,,,,,,,,,,,*1E

$GPRMC,210444.588,V,,,,,,,100305,,*2A

$GPGGA,210445.588,,,,,0,00,,,M,0.0,M,,0000*55

$GPGSA,A,1,,,,,,,,,,,,,,,*1E

$GPGSV,3,1,12,04,66,000,39,28,66,000,35,24,55,000,,07,42,000,*7D

$GPGSV,3,2,12,31,39,000,,02,30,000,,08,24,000,,20,18,000,*77

$GPGSV,3,3,12,27,06,000,,09,04,000,,10,-1,000,,13,-1,000,*77

$GPRMC,210445.588,V,,,,,,,100305,,*2B

$GPGGA,210446.588,,,,,0,00,,,M,0.0,M,,0000*56

$GPGSA,A,1,,,,,,,,,,,,,,,*1E

$GPRMC,210446.588,V,,,,,,,100305,,*28

$GPGGA,210447.588,,,,,0,00,,,M,0.0,M,,0000*57

$GPGSA,A,1,,,,,,,,,,,,,,,*1E

$GPRMC,210447.588,V,,,,,,,100305,,*29

$GPGGA,210448.588,,,,,0,00,,,M,0.0,M,,0000*58

$GPGSA,A,1,,,,,,,,,,,,,,,*1E

$GPRMC,210448.588,V,,,,,,,100305,,*26

$GPGGA,210449.588,,,,,0,00,,,M,0.0,M,,0000*59

$GPGSA,A,1,,,,,,,,,,,,,,,*1E

$GPRMC,210449.588,V,,,,,,,100305,,*27

$GPGGA,210450.588,,,,,0,00,,,M,0.0,M,,0000*51

$GPGSA,A,1,,,,,,,,,,,,,,,*1E

$GPGSV,3,1,12,28,73,000,36,24,68,000,,31,60,000,,07,54,000,*79

$GPGSV,3,2,12,04,45,000,39,20,40,000,28,11,12,000,,08,11,000,*73

$GPGSV,3,3,12,02,09,000,,23,04,000,,13,02,000,,09,00,000,*7D

$GPRMC,210450.588,V,,,,,,,100305,,*2F

$GPGGA,210451.588,,,,,0,00,,,M,0.0,M,,0000*50

$GPGSA,A,1,,,,,,,,,,,,,,,*1E

$GPRMC,210451.588,V,,,,,,,100305,,*2E

$GPGGA,210452.588,,,,,0,00,,,M,0.0,M,,0000*53

$GPGSA,A,1,,,,,,,,,,,,,,,*1E

$GPRMC,210452.588,V,,,,,,,100305,,*2D

$GPGGA,210453.588,,,,,0,00,,,M,0.0,M,,0000*52

$GPGSA,A,1,,,,,,,,,,,,,,,*1E

$GPRMC,210453.588,V,,,,,,,161106,,*2A

$GPGGA,210454.588,,,,,0,00,,,M,0.0,M,,0000*55

$GPGSA,A,1,,,,,,,,,,,,,,,*1E

$GPRMC,210454.588,V,,,,,,,161106,,*2D

$GPGGA,210455.589,,,,,0,00,,,M,0.0,M,,0000*55

$GPGSA,A,1,,,,,,,,,,,,,,,*1E

$GPGSV,3,1,12,28,69,000,36,20,67,000,28,04,60,000,39,31,58,000,*76

$GPGSV,3,2,12,24,53,000,,07,49,000,,08,14,000,,23,13,000,*7F

$GPGSV,3,3,12,11,10,000,,02,07,000,,13,02,000,,05,-4,000,*62

$GPRMC,210455.589,V,,,,,,,161106,,*2D

$GPGGA,210456.589,,,,,0,00,,,M,0.0,M,,0000*56

$GPGSA,A,1,,,,,,,,,,,,,,,*1E

$GPRMC,210456.589,V,,,,,,,161106,,*2E

$GPGGA,210457.589,,,,,0,00,,,M,0.0,M,,0000*57

$GPGSA,A,1,,,,,,,,,,,,,,,*1E

$GPRMC,210457.589,V,,,,,,,161106,,*2F

$GPGGA,210458.589,,,,,0,00,,,M,0.0,M,,0000*58

$GPGSA,A,1,,,,,,,,,,,,,,,*1E

$GPRMC,210458.589,V,,,,,,,161106,,*20

$GPGGA,210459.589,,,,,0,00,,,M,0.0,M,,0000*59

$GPGSA,A,1,,,,,,,,,,,,,,,*1E

$GPRMC,210459.589,V,,,,,,,161106,,*21

$GPGGA,210500.589,,,,,0,00,,,M,0.0,M,,0000*54

$GPGSA,A,1,,,,,,,,,,,,,,,*1E

$GPGSV,3,1,12,28,68,000,36,20,67,000,29,04,60,000,39,31,58,000,*76

$GPGSV,3,2,12,24,53,000,,07,50,000,,08,14,000,,23,13,000,*77

$GPGSV,3,3,12,11,10,000,,02,07,000,,13,02,000,,05,-4,000,*62

$GPRMC,210500.589,V,,,,,,,161106,,*2C

$GPGGA,210501.589,,,,,0,00,,,M,0.0,M,,0000*55

$GPGSA,A,1,,,,,,,,,,,,,,,*1E

$GPRMC,210501.589,V,,,,,,,161106,,*2D

$GPGGA,210502.589,,,,,0,00,,,M,0.0,M,,0000*56

$GPGSA,A,1,,,,,,,,,,,,,,,*1E

$GPRMC,210502.589,V,,,,,,,161106,,*2E

$GPGGA,210503.589,,,,,0,00,,,M,0.0,M,,0000*57

$GPGSA,A,1,,,,,,,,,,,,,,,*1E

$GPRMC,210503.589,V,,,,,,,161106,,*2F

$GPGGA,210504.589,,,,,0,00,,,M,0.0,M,,0000*50

$GPGSA,A,1,,,,,,,,,,,,,,,*1E

$GPRMC,210504.589,V,,,,,,,161106,,*28

$GPGGA,210505.588,4451.1015,N,12314.2582,W,1,03,3.6,20.6,M,-20.6,M,,0000*5A

$GPGSA,A,2,28,04,17,,,,,,,,,,3.8,3.6,1.0*34

$GPGSV,3,1,11,04,51,128,38,17,46,055,42,28,12,104,35,09,57,275,*78

$GPGSV,3,2,11,05,53,301,,07,49,058,,24,30,052,,02,27,176,*7B

$GPGSV,3,3,11,26,13,242,,31,10,062,,20,05,077,29*40

$GPRMC,210505.588,A,4451.1015,N,12314.2582,W,0.02,126.98,161106,,*19

$GPGGA,210506.588,4451.1014,N,12314.2583,W,1,03,3.6,20.6,M,-20.6,M,,0000*59

$GPGSA,A,2,28,04,17,,,,,,,,,,3.8,3.6,1.0*34

$GPRMC,210506.588,A,4451.1014,N,12314.2583,W,0.17,269.25,161106,,*10

$GPGGA,210507.587,4451.1009,N,12314.2579,W,0,03,,20.6,M,-20.6,M,,0000*74

$GPGSA,A,1,28,04,17,,,,,,,,,,,,*16

$GPRMC,210507.587,A,4451.1009,N,12314.2579,W,,,161106,,*1B

$GPGGA,210508.586,4451.0996,N,12314.2617,W,1,03,3.6,20.6,M,-20.6,M,,0000*55

$GPGSA,A,2,28,04,17,,,,,,,,,,3.8,3.6,1.0*34

$GPRMC,210508.586,A,4451.0996,N,12314.2617,W,0.47,48.95,161106,,*23

$GPGGA,210509.586,4451.1021,N,12314.2643,W,1,03,3.6,20.6,M,-20.6,M,,0000*51

$GPGSA,A,2,28,04,17,,,,,,,,,,3.8,3.6,1.0*34

$GPRMC,210509.586,A,4451.1021,N,12314.2643,W,1.90,312.93,161106,,*16

$GPGGA,210510.587,4451.1014,N,12314.2617,W,1,03,3.6,20.6,M,-20.6,M,,0000*5F

$GPGSA,A,2,28,04,17,,,,,,,,,,3.8,3.6,1.0*34

$GPGSV,3,1,11,04,51,128,39,17,46,055,43,28,12,104,34,09,57,275,*79

$GPGSV,3,2,11,05,53,301,,07,49,058,,24,30,052,,02,27,176,28*71

$GPGSV,3,3,11,26,13,242,,31,10,062,,20,05,077,30*48

$GPRMC,210510.587,A,4451.1014,N,12314.2617,W,0.01,0.00,161106,,*1B

$GPGGA,210511.586,4451.1010,N,12314.2605,W,1,03,3.6,20.6,M,-20.6,M,,0000*58

$GPGSA,A,2,28,04,17,,,,,,,,,,3.8,3.6,1.0*34

$GPRMC,210511.586,A,4451.1010,N,12314.2605,W,0.14,260.78,161106,,*13

$GPGGA,210512.587,4451.1028,N,12314.2570,W,1,03,3.6,20.6,M,-20.6,M,,0000*50

$GPGSA,A,2,28,04,17,,,,,,,,,,3.8,3.6,1.0*34

$GPRMC,210512.587,A,4451.1028,N,12314.2570,W,0.06,36.14,161106,,*23

$GPGGA,210513.587,4451.1039,N,12314.2643,W,1,03,3.6,20.6,M,-20.6,M,,0000*52

$GPGSA,A,2,28,04,17,,,,,,,,,,3.8,3.6,1.0*34

$GPRMC,210513.587,A,4451.1039,N,12314.2643,W,0.13,64.68,161106,,*29

$GPGGA,210514.586,4451.1033,N,12314.2691,W,1,03,3.6,20.6,M,-20.6,M,,0000*51

$GPGSA,A,2,28,04,17,,,,,,,,,,3.8,3.6,1.0*34

$GPRMC,210514.586,A,4451.1033,N,12314.2691,W,0.03,324.45,161106,,*13

$GPGGA,210515.586,4451.1032,N,12314.2611,W,1,03,3.6,20.6,M,-20.6,M,,0000*59

$GPGSA,A,2,28,04,17,,,,,,,,,,3.8,3.6,1.0*34

$GPGSV,3,1,11,04,51,128,39,17,46,055,43,28,12,104,34,09,57,275,*79

$GPGSV,3,2,11,05,53,301,,07,49,058,,24,30,052,,02,27,176,28*71

$GPGSV,3,3,11,26,13,242,,31,10,062,,20,05,077,31*49

$GPRMC,210515.586,A,4451.1032,N,12314.2611,W,0.15,276.61,161106,,*1C

$GPGGA,210516.586,4451.1043,N,12314.2604,W,1,03,3.6,20.6,M,-20.6,M,,0000*58

$GPGSA,A,2,28,04,17,,,,,,,,,,3.8,3.6,1.0*34

$GPRMC,210516.586,A,4451.1043,N,12314.2604,W,0.05,312.44,161106,,*18

$GPGGA,210517.590,4451.1033,N,12314.2599,W,1,03,3.6,20.6,M,-20.6,M,,0000*5E

$GPGSA,A,2,28,04,17,,,,,,,,,,3.8,3.6,1.0*34

$GPRMC,210517.590,A,4451.1033,N,12314.2599,W,0.07,194.03,161106,,*13

$GPGGA,210518.586,4451.1031,N,12314.2631,W,1,03,3.6,20.6,M,-20.6,M,,0000*55

$GPGSA,A,2,28,04,17,,,,,,,,,,3.8,3.6,1.0*34

$GPRMC,210518.586,A,4451.1031,N,12314.2631,W,0.11,9.23,161106,,*18

$GPGGA,210519.590,4451.1034,N,12314.2644,W,1,03,3.6,20.6,M,-20.6,M,,0000*54

$GPGSA,A,2,28,04,17,,,,,,,,,,3.8,3.6,1.0*34

$GPRMC,210519.590,A,4451.1034,N,12314.2644,W,0.08,267.41,161106,,*1F

$GPGGA,210520.590,4451.1039,N,12314.2652,W,1,03,3.6,20.6,M,-20.6,M,,0000*54

$GPGSA,A,2,28,04,17,,,,,,,,,,3.8,3.6,1.0*34

$GPGSV,3,1,11,04,51,128,40,17,46,055,43,28,12,104,33,09,57,274,*71

$GPGSV,3,2,11,05,53,301,,07,49,058,,24,30,052,,02,27,176,28*71

$GPGSV,3,3,11,26,13,242,,31,10,062,,20,05,077,31*49

$GPRMC,210520.590,A,4451.1039,N,12314.2652,W,0.09,324.45,161106,,*1C

$GPGGA,210521.586,4451.1041,N,12314.2658,W,1,03,3.6,20.6,M,-20.6,M,,0000*57

$GPGSA,A,2,28,04,17,,,,,,,,,,3.8,3.6,1.0*34

$GPRMC,210521.586,A,4451.1041,N,12314.2658,W,0.11,333.96,161106,,*1E

$GPGGA,210522.586,4451.1042,N,12314.2663,W,1,03,3.6,20.6,M,-20.6,M,,0000*5F

$GPGSA,A,2,28,04,17,,,,,,,,,,3.8,3.6,1.0*34

$GPRMC,210522.586,A,4451.1042,N,12314.2663,W,0.09,295.03,161106,,*1E

$GPGGA,210523.586,4451.1022,N,12314.2051,W,1,04,3.4,86.3,M,-20.6,M,,0000*53

$GPGSA,A,3,28,04,17,20,,,,,,,,,3.5,3.4,1.0*38

$GPRMC,210523.586,A,4451.1022,N,12314.2051,W,0.06,144.46,161106,,*1F

$GPGGA,210524.586,4451.1023,N,12314.2045,W,1,04,7.6,86.8,M,-20.6,M,,0000*5D

$GPGSA,A,3,28,04,17,20,,,,,,,,,8.9,7.6,4.8*34

$GPRMC,210524.586,A,4451.1023,N,12314.2045,W,0.04,38.99,161106,,*26

$GPGGA,210525.000,4451.1023,N,12314.2045,W,1,04,7.6,86.8,M,-20.6,M,,0000*57

$GPGSA,A,3,28,04,17,20,,,,,,,,,8.9,7.6,4.8*34

$GPGSV,3,1,11,04,51,128,40,17,46,055,43,28,12,104,33,20,05,052,30*78

$GPGSV,3,2,11,09,57,274,,05,53,301,,07,49,058,,24,30,052,*76

$GPGSV,3,3,11,02,27,176,28,26,13,242,,31,10,062,*41

$GPRMC,210525.000,A,4451.1023,N,12314.2045,W,0.13,73.03,161106,,*26

$GPGGA,210526.000,4451.1022,N,12314.2041,W,1,04,7.6,86.9,M,-20.6,M,,0000*50

$GPGSA,A,3,28,04,17,20,,,,,,,,,8.9,7.6,4.8*34

$GPRMC,210526.000,A,4451.1022,N,12314.2041,W,0.13,80.38,161106,,*24

$GPGGA,210527.000,4451.1022,N,12314.2036,W,1,04,7.6,87.0,M,-20.6,M,,0000*59

$GPGSA,A,3,28,04,17,20,,,,,,,,,8.9,7.6,4.8*34

$GPRMC,210527.000,A,4451.1022,N,12314.2036,W,0.08,69.30,161106,,*20

$GPGGA,210528.000,4451.1021,N,12314.2033,W,1,04,7.6,87.2,M,-20.6,M,,0000*52

$GPGSA,A,3,28,04,17,20,,,,,,,,,8.9,7.6,4.8*34

$GPRMC,210528.000,A,4451.1021,N,12314.2033,W,0.08,72.84,161106,,*2C

$GPGGA,210529.000,4451.1021,N,12314.2031,W,1,04,7.6,87.3,M,-20.6,M,,0000*50

$GPGSA,A,3,28,04,17,20,,,,,,,,,8.9,7.6,4.8*34

$GPRMC,210529.000,A,4451.1021,N,12314.2031,W,0.08,71.72,161106,,*25

$GPGGA,210530.000,4451.1021,N,12314.2029,W,1,04,7.6,87.4,M,-20.6,M,,0000*56

$GPGSA,A,3,28,04,17,20,,,,,,,,,8.9,7.6,4.8*34

$GPGSV,3,1,11,04,51,128,39,17,46,055,43,28,12,104,32,20,05,052,30*77

$GPGSV,3,2,11,09,57,274,,05,53,301,,07,49,058,,24,30,052,*76

$GPGSV,3,3,11,02,27,176,29,26,13,242,,31,10,062,*40

$GPRMC,210530.000,A,4451.1021,N,12314.2029,W,0.09,93.31,161106,,*2E

$GPGGA,210531.000,4451.1021,N,12314.2027,W,1,04,7.6,87.6,M,-20.6,M,,0000*5B

$GPGSA,A,3,28,04,17,20,,,,,,,,,8.9,7.6,4.8*34

$GPRMC,210531.000,A,4451.1021,N,12314.2027,W,0.10,65.25,161106,,*25

$GPGGA,210532.000,4451.1020,N,12314.2024,W,1,04,7.6,87.7,M,-20.6,M,,0000*5B

$GPGSA,A,3,28,04,17,20,,,,,,,,,8.9,7.6,4.8*34

$GPRMC,210532.000,A,4451.1020,N,12314.2024,W,0.11,80.58,161106,,*24

$GPGGA,210533.000,4451.1020,N,12314.2021,W,1,04,7.6,87.9,M,-20.6,M,,0000*51

$GPGSA,A,3,28,04,17,20,,,,,,,,,8.9,7.6,4.8*34

$GPRMC,210533.000,A,4451.1020,N,12314.2021,W,0.15,78.90,161106,,*27

$GPGGA,210534.000,4451.1020,N,12314.2019,W,1,04,7.6,88.0,M,-20.6,M,,0000*5B

$GPGSA,A,3,28,04,17,20,,,,,,,,,9.0,7.6,4.8*3C

$GPRMC,210534.000,A,4451.1020,N,12314.2019,W,0.09,84.64,161106,,*2E

$GPGGA,210535.000,4451.1020,N,12314.2054,W,1,05,2.4,84.9,M,-20.6,M,,0000*50

$GPGSA,A,3,28,04,17,20,02,,,,,,,,3.1,2.4,1.9*36

$GPGSV,3,1,11,04,51,128,38,17,46,055,43,28,12,104,32,20,05,052,30*76

$GPGSV,3,2,11,09,57,274,,05,53,301,,07,49,058,,24,30,052,*76

$GPGSV,3,3,11,02,27,176,28,26,13,242,,31,10,062,*41

$GPRMC,210535.000,A,4451.1020,N,12314.2054,W,0.09,78.54,161106,,*26

$GPGGA,210536.000,4451.1019,N,12314.2054,W,1,05,2.4,84.9,M,-20.6,M,,0000*59

$GPGSA,A,3,28,04,17,20,02,,,,,,,,3.1,2.4,1.9*36

$GPRMC,210536.000,A,4451.1019,N,12314.2054,W,0.16,72.53,161106,,*2C

$GPGGA,210537.000,4451.1019,N,12314.2052,W,1,05,2.4,85.0,M,-20.6,M,,0000*56

$GPGSA,A,3,28,04,17,20,02,,,,,,,,3.1,2.4,1.9*36

$GPRMC,210537.000,A,4451.1019,N,12314.2052,W,0.17,86.06,161106,,*21

$GPGGA,210538.000,4451.1018,N,12314.2049,W,1,05,2.4,85.1,M,-20.6,M,,0000*53

$GPGSA,A,3,28,04,17,20,02,,,,,,,,3.1,2.4,1.9*36

$GPRMC,210538.000,A,4451.1018,N,12314.2049,W,0.18,78.63,161106,,*28

$GPGGA,210539.000,4451.1018,N,12314.2046,W,1,05,2.4,85.3,M,-20.6,M,,0000*5F

$GPGSA,A,3,28,04,17,20,02,,,,,,,,3.1,2.4,1.9*36

$GPRMC,210539.000,A,4451.1018,N,12314.2046,W,0.18,88.46,161106,,*2E

$GPGGA,210540.000,4451.1017,N,12314.2042,W,1,05,2.4,85.5,M,-20.6,M,,0000*5C

$GPGSA,A,3,28,04,17,20,02,,,,,,,,3.1,2.4,1.9*36

$GPGSV,3,1,11,09,57,274,,05,53,301,,04,51,127,38,07,49,058,*78

$GPGSV,3,2,11,17,45,055,43,24,30,052,,02,28,175,28,26,13,242,*79

$GPGSV,3,3,11,28,12,104,28,31,10,062,,20,05,052,30*4B

$GPRMC,210540.000,A,4451.1017,N,12314.2042,W,0.20,81.07,161106,,*2C

$GPGGA,210541.000,4451.1017,N,12314.2037,W,1,05,2.4,85.8,M,-20.6,M,,0000*52

$GPGSA,A,3,28,04,17,20,02,,,,,,,,3.1,2.4,1.9*36

$GPRMC,210541.000,A,4451.1017,N,12314.2037,W,0.18,83.76,161106,,*20

$GPGGA,210542.000,4451.1016,N,12314.2033,W,1,05,2.4,86.0,M,-20.6,M,,0000*5F

$GPGSA,A,3,28,04,17,20,02,,,,,,,,3.1,2.4,1.9*36

$GPRMC,210542.000,A,4451.1016,N,12314.2033,W,0.23,89.29,161106,,*2E

$GPGGA,210543.000,4451.1015,N,12314.2028,W,1,05,2.4,86.3,M,-20.6,M,,0000*54

$GPGSA,A,3,28,04,17,20,02,,,,,,,,3.1,2.4,1.9*36

$GPRMC,210543.000,A,4451.1015,N,12314.2028,W,0.23,81.68,161106,,*2B

$GPGGA,210544.000,4451.1015,N,12314.2024,W,1,05,2.4,86.6,M,-20.6,M,,0000*5A

$GPGSA,A,3,28,04,17,20,02,,,,,,,,3.1,2.4,1.9*36

$GPRMC,210544.000,A,4451.1015,N,12314.2024,W,0.27,94.12,161106,,*2D

$GPGGA,210545.000,4451.1014,N,12314.2020,W,1,05,2.4,86.8,M,-20.6,M,,0000*50

$GPGSA,A,3,28,04,17,20,02,,,,,,,,3.1,2.4,1.9*36

$GPGSV,3,1,11,09,57,274,,05,53,301,,04,51,127,37,07,48,058,*76

$GPGSV,3,2,11,17,45,055,43,24,30,052,,02,28,175,28,26,13,242,*79

$GPGSV,3,3,11,28,12,104,29,31,10,062,,20,05,052,29*42

$GPRMC,210545.000,A,4451.1014,N,12314.2020,W,0.25,91.51,161106,,*29

$GPGGA,210546.000,4451.1014,N,12314.2017,W,1,05,2.4,87.0,M,-20.6,M,,0000*5E

$GPGSA,A,3,28,04,17,20,02,,,,,,,,3.1,2.4,1.9*36

$GPRMC,210546.000,A,4451.1014,N,12314.2017,W,0.24,88.85,161106,,*2E

$GPGGA,210547.000,4451.1013,N,12314.2014,W,1,05,2.4,87.2,M,-20.6,M,,0000*59

$GPGSA,A,3,28,04,17,20,02,,,,,,,,3.1,2.4,1.9*36

$GPRMC,210547.000,A,4451.1013,N,12314.2014,W,0.27,88.32,161106,,*24

$GPGGA,210548.000,4451.1013,N,12314.2011,W,1,05,2.4,87.4,M,-20.6,M,,0000*55

$GPGSA,A,3,28,04,17,20,02,,,,,,,,3.1,2.4,1.9*36

$GPRMC,210548.000,A,4451.1013,N,12314.2011,W,0.25,89.25,161106,,*2B

$GPGGA,210549.000,4451.1012,N,12314.2008,W,1,05,2.4,87.5,M,-20.6,M,,0000*5C

$GPGSA,A,3,28,04,17,20,02,,,,,,,,3.1,2.4,1.9*36

$GPRMC,210549.000,A,4451.1012,N,12314.2008,W,0.27,89.28,161106,,*2C

$GPGGA,210550.000,4451.1012,N,12314.2006,W,1,05,2.4,87.7,M,-20.6,M,,0000*58

$GPGSA,A,3,28,04,17,20,02,,,,,,,,3.1,2.4,1.9*36

$GPGSV,3,1,11,09,57,274,,05,53,301,,04,51,127,38,07,48,058,*79

$GPGSV,3,2,11,17,45,055,43,24,30,052,,02,28,175,28,26,12,242,*78

$GPGSV,3,3,11,28,12,104,30,31,10,062,,20,05,052,29*4A

$GPRMC,210550.000,A,4451.1012,N,12314.2006,W,0.29,91.74,161106,,*24

$GPGGA,210551.000,4451.1011,N,12314.2003,W,1,05,2.4,87.9,M,-20.6,M,,0000*51

$GPGSA,A,3,28,04,17,20,02,,,,,,,,3.1,2.4,1.9*36

$GPRMC,210551.000,A,4451.1011,N,12314.2003,W,0.26,87.06,161106,,*2E

$GPGGA,210552.000,4451.1011,N,12314.2001,W,1,05,2.4,88.0,M,-20.6,M,,0000*56

$GPGSA,A,3,28,04,17,20,02,,,,,,,,3.1,2.4,1.9*36

$GPRMC,210552.000,A,4451.1011,N,12314.2001,W,0.25,91.28,161106,,*27

$GPGGA,210553.000,4451.1010,N,12314.1999,W,1,05,2.4,88.1,M,-20.6,M,,0000*5C

$GPGSA,A,3,28,04,17,20,02,,,,,,,,3.1,2.4,1.9*36

$GPRMC,210553.000,A,4451.1010,N,12314.1999,W,0.25,89.41,161106,,*2A

$GPGGA,210554.000,4451.1010,N,12314.1997,W,1,05,2.4,88.1,M,-20.6,M,,0000*55

$GPGSA,A,3,28,04,17,20,02,,,,,,,,3.1,2.4,1.9*36

$GPRMC,210554.000,A,4451.1010,N,12314.1997,W,0.22,91.63,161106,,*2D

$GPGGA,210555.000,4451.1009,N,12314.1995,W,1,05,2.4,88.2,M,-20.6,M,,0000*5D

$GPGSA,A,3,28,04,17,20,02,,,,,,,,3.1,2.4,1.9*36

$GPGSV,3,1,11,09,57,274,,05,53,301,,04,51,127,38,07,48,058,*79

$GPGSV,3,2,11,17,45,055,43,24,30,052,,02,28,175,27,26,12,242,*77

$GPGSV,3,3,11,28,12,104,30,31,10,062,,20,05,052,29*4A

$GPRMC,210555.000,A,4451.1009,N,12314.1995,W,0.23,85.45,161106,,*26

$GPGGA,210556.000,4451.1009,N,12314.1994,W,1,05,2.4,88.3,M,-20.6,M,,0000*5E

$GPGSA,A,3,28,04,17,20,02,,,,,,,,3.1,2.4,1.9*36

$GPRMC,210556.000,A,4451.1009,N,12314.1994,W,0.22,88.92,161106,,*22

$GPGGA,210557.000,4451.1009,N,12314.1992,W,1,05,2.4,88.3,M,-20.6,M,,0000*59

$GPGSA,A,3,28,04,17,20,02,,,,,,,,3.1,2.4,1.9*36

$GPRMC,210557.000,A,4451.1009,N,12314.1992,W,0.23,88.42,161106,,*29

$GPGGA,210558.000,4451.1008,N,12314.1990,W,1,05,2.4,88.4,M,-20.6,M,,0000*52

$GPGSA,A,3,28,04,17,20,02,,,,,,,,3.1,2.4,1.9*36

$GPRMC,210558.000,A,4451.1008,N,12314.1990,W,0.22,84.43,161106,,*29

$GPGGA,210559.000,4451.1008,N,12314.1988,W,1,05,2.4,88.5,M,-20.6,M,,0000*5B

$GPGSA,A,3,28,04,17,20,02,,,,,,,,3.1,2.4,1.9*36

$GPRMC,210559.000,A,4451.1008,N,12314.1988,W,0.22,89.51,161106,,*2F

$GPGGA,210600.000,4451.1007,N,12314.1986,W,1,05,2.4,88.6,M,-20.6,M,,0000*56

$GPGSA,A,3,28,04,17,20,02,,,,,,,,3.1,2.4,1.9*36

$GPGSV,3,1,11,09,57,274,,05,53,301,,04,51,127,38,07,48,058,*79

$GPGSV,3,2,11,17,45,055,44,24,30,052,,02,28,175,27,26,12,242,*70

$GPGSV,3,3,11,28,12,104,30,31,10,062,,20,05,052,28*4B

$GPRMC,210600.000,A,4451.1007,N,12314.1986,W,0.24,85.39,161106,,*25

$GPGGA,210601.000,4451.1007,N,12314.1984,W,1,05,2.4,88.7,M,-20.6,M,,0000*54

$GPGSA,A,3,28,04,17,20,02,,,,,,,,3.1,2.4,1.9*36

$GPRMC,210601.000,A,4451.1007,N,12314.1984,W,0.26,88.96,161106,,*2C

$GPGGA,210602.000,4451.1007,N,12314.1981,W,1,05,2.4,88.8,M,-20.6,M,,0000*5D

$GPGSA,A,3,28,04,17,20,02,,,,,,,,3.1,2.4,1.9*36

$GPRMC,210602.000,A,4451.1007,N,12314.1981,W,0.34,83.77,161106,,*2D

$GPGGA,210603.000,4451.1006,N,12314.1978,W,1,05,2.4,88.9,M,-20.6,M,,0000*5A

$GPGSA,A,3,28,04,17,20,02,,,,,,,,3.1,2.4,1.9*36

$GPRMC,210603.000,A,4451.1006,N,12314.1978,W,0.28,92.26,161106,,*22

$GPGGA,210604.000,4451.1006,N,12314.1975,W,1,05,2.4,89.1,M,-20.6,M,,0000*59

$GPGSA,A,3,28,04,17,20,02,,,,,,,,3.1,2.4,1.9*36

$GPRMC,210604.000,A,4451.1006,N,12314.1975,W,0.29,88.80,161106,,*2E

$GPGGA,210605.000,4451.1005,N,12314.1973,W,1,05,2.4,89.2,M,-20.6,M,,0000*5E

$GPGSA,A,3,28,04,17,20,02,,,,,,,,3.1,2.4,1.9*36

$GPGSV,3,1,11,09,57,274,,05,53,301,,04,51,127,38,07,48,058,*79

$GPGSV,3,2,11,17,45,055,44,24,30,052,,02,28,175,27,26,12,242,*70

$GPGSV,3,3,11,28,12,104,30,31,10,062,,20,05,052,28*4B

$GPRMC,210605.000,A,4451.1005,N,12314.1973,W,0.27,90.16,161106,,*22

$GPGGA,210606.000,4451.1005,N,12314.1970,W,1,05,2.4,89.4,M,-20.6,M,,0000*58

$GPGSA,A,3,28,04,17,20,02,,,,,,,,3.1,2.4,1.9*36

$GPRMC,210606.000,A,4451.1005,N,12314.1970,W,0.26,89.83,161106,,*27

$GPGGA,210607.000,4451.1004,N,12314.1967,W,1,05,2.4,89.5,M,-20.6,M,,0000*5F

$GPGSA,A,3,28,04,17,20,02,,,,,,,,3.1,2.4,1.9*36

$GPRMC,210607.000,A,4451.1004,N,12314.1967,W,0.26,89.98,161106,,*2B

$GPGGA,210608.000,4451.1004,N,12314.1964,W,1,05,2.4,89.7,M,-20.6,M,,0000*51

$GPGSA,A,3,28,04,17,20,02,,,,,,,,3.1,2.4,1.9*36

$GPRMC,210608.000,A,4451.1004,N,12314.1964,W,0.29,93.95,161106,,*2E

$GPGGA,210609.000,4451.1003,N,12314.1960,W,1,05,2.4,89.9,M,-20.6,M,,0000*5D

$GPGSA,A,3,28,04,17,20,02,,,,,,,,3.1,2.4,1.9*36

$GPRMC,210609.000,A,4451.1003,N,12314.1960,W,0.30,90.32,161106,,*2A

$GPGGA,210610.000,4451.1003,N,12314.1957,W,1,05,2.4,90.1,M,-20.6,M,,0000*51

$GPGSA,A,3,28,04,17,20,02,,,,,,,,3.1,2.4,1.9*36

$GPGSV,3,1,11,09,57,274,,05,53,301,,04,51,127,37,07,48,058,*76

$GPGSV,3,2,11,17,45,055,44,24,30,052,,02,28,175,26,26,12,242,*71

$GPGSV,3,3,11,28,12,104,30,31,10,062,,20,05,052,27*44

$GPRMC,210610.000,A,4451.1003,N,12314.1957,W,0.29,89.70,161106,,*20

$GPGGA,210611.000,4451.1002,N,12314.1955,W,1,05,2.4,90.2,M,-20.6,M,,0000*50

$GPGSA,A,3,28,04,17,20,02,,,,,,,,3.1,2.4,1.9*36

$GPRMC,210611.000,A,4451.1002,N,12314.1955,W,0.29,93.06,161106,,*28

$GPGGA,210612.000,4451.1002,N,12314.1952,W,1,05,2.4,90.4,M,-20.6,M,,0000*52

$GPGSA,A,3,28,04,17,20,02,,,,,,,,3.1,2.4,1.9*36

$GPRMC,210612.000,A,4451.1002,N,12314.1952,W,0.38,85.54,161106,,*2C

$GPGGA,210613.000,4451.1002,N,12314.1949,W,1,05,2.4,90.6,M,-20.6,M,,0000*5B

$GPGSA,A,3,28,04,17,20,02,,,,,,,,3.1,2.4,1.9*36

$GPRMC,210613.000,A,4451.1002,N,12314.1949,W,0.34,92.37,161106,,*28

$GPGGA,210614.000,4451.1001,N,12314.1946,W,1,05,2.4,90.7,M,-20.6,M,,0000*51

$GPGSA,A,3,28,04,17,20,02,,,,,,,,3.1,2.4,1.9*36

$GPRMC,210614.000,A,4451.1001,N,12314.1946,W,0.31,93.84,161106,,*2F

$GPGGA,210615.000,4451.1001,N,12314.1945,W,1,05,2.4,90.5,M,-20.6,M,,0000*51

$GPGSA,A,3,28,04,17,20,02,,,,,,,,3.1,2.4,1.9*36

$GPGSV,3,1,10,09,57,274,,05,54,301,,04,51,127,37,07,48,058,*70

$GPGSV,3,2,10,17,45,055,44,24,30,052,,02,28,175,26,28,12,104,31*7D

$GPGSV,3,3,10,31,10,062,,20,05,051,25*7B

$GPRMC,210615.000,A,4451.1001,N,12314.1945,W,0.37,81.60,161106,,*22

$GPGGA,210616.000,4451.1001,N,12314.1943,W,1,05,2.4,90.3,M,-20.6,M,,0000*52

$GPGSA,A,3,28,04,17,20,02,,,,,,,,3.1,2.4,1.9*36

$GPRMC,210616.000,A,4451.1001,N,12314.1943,W,0.35,78.49,161106,,*28

$GPGGA,210617.000,4451.1001,N,12314.1941,W,1,05,2.4,90.3,M,-20.6,M,,0000*51

$GPGSA,A,3,28,04,17,20,02,,,,,,,,3.1,2.4,1.9*36

$GPRMC,210617.000,A,4451.1001,N,12314.1941,W,0.24,80.55,161106,,*21

$GPGGA,210618.000,4451.1001,N,12314.1939,W,1,05,2.4,90.3,M,-20.6,M,,0000*51

$GPGSA,A,3,28,04,17,20,02,,,,,,,,3.1,2.4,1.9*36

$GPRMC,210618.000,A,4451.1001,N,12314.1939,W,0.13,84.82,161106,,*2B

$GPGGA,210619.000,4451.1001,N,12314.1938,W,1,05,2.4,90.2,M,-20.6,M,,0000*50

$GPGSA,A,3,28,04,17,20,02,,,,,,,,3.1,2.4,1.9*36

$GPRMC,210619.000,A,4451.1001,N,12314.1938,W,0.26,71.27,161106,,*28

$GPGGA,210620.000,4451.1000,N,12314.1935,W,1,05,2.4,90.4,M,-20.6,M,,0000*50

$GPGSA,A,3,28,04,17,20,02,,,,,,,,3.1,2.4,1.9*36

$GPGSV,3,1,10,09,57,273,,05,54,301,,04,51,127,36,07,48,058,*76

$GPGSV,3,2,10,17,45,055,44,24,30,052,,02,28,175,26,28,12,104,30*7C

$GPGSV,3,3,10,31,10,062,,20,05,051,25*7B

$GPRMC,210620.000,A,4451.1000,N,12314.1935,W,0.11,109.06,161106,,*17

$GPGGA,210621.000,4451.1000,N,12314.1933,W,1,05,2.4,90.6,M,-20.6,M,,0000*55

$GPGSA,A,3,28,04,17,20,02,,,,,,,,3.1,2.4,1.9*36

$GPRMC,210621.000,A,4451.1000,N,12314.1933,W,0.17,86.99,161106,,*26

$GPGGA,210622.000,4451.0999,N,12314.1931,W,1,05,2.4,90.8,M,-20.6,M,,0000*52

$GPGSA,A,3,28,04,17,20,02,,,,,,,,3.1,2.4,1.9*36

$GPRMC,210622.000,A,4451.0999,N,12314.1931,W,0.21,89.97,161106,,*2B

$GPGGA,210623.000,4451.0999,N,12314.1929,W,1,05,2.4,90.7,M,-20.6,M,,0000*55

$GPGSA,A,3,28,04,17,20,02,,,,,,,,3.1,2.4,1.9*36

$GPRMC,210623.000,A,4451.0999,N,12314.1929,W,0.35,76.88,161106,,*28

$GPGGA,210624.000,4451.0999,N,12314.1927,W,1,05,2.4,90.6,M,-20.6,M,,0000*5D

$GPGSA,A,3,28,04,17,20,02,,,,,,,,3.1,2.4,1.9*36

$GPRMC,210624.000,A,4451.0999,N,12314.1927,W,0.27,73.82,161106,,*2D

$GPGGA,210625.000,4451.0998,N,12314.1924,W,1,05,2.4,90.8,M,-20.6,M,,0000*50

$GPGSA,A,3,28,04,17,20,02,,,,,,,,3.1,2.4,1.9*36

$GPGSV,3,1,10,09,57,273,,05,54,301,,04,51,127,35,07,48,058,*75

$GPGSV,3,2,10,17,45,055,44,24,30,052,,02,28,175,26,28,12,104,29*74

$GPGSV,3,3,10,31,10,062,,20,05,051,24*7A

$GPRMC,210625.000,A,4451.0998,N,12314.1924,W,0.33,75.66,161106,,*27

$GPGGA,210626.000,4451.0998,N,12314.1922,W,1,05,2.4,90.8,M,-20.6,M,,0000*55

$GPGSA,A,3,28,04,17,20,02,,,,,,,,3.1,2.4,1.9*36

$GPRMC,210626.000,A,4451.0998,N,12314.1922,W,0.28,81.61,161106,,*24

$GPGGA,210627.000,4451.0997,N,12314.1919,W,1,05,2.4,91.2,M,-20.6,M,,0000*58

$GPGSA,A,3,28,04,17,20,02,,,,,,,,3.1,2.4,1.9*36

$GPRMC,210627.000,A,4451.0997,N,12314.1919,W,0.09,131.08,161106,,*14

$GPGGA,210628.000,4451.0996,N,12314.1917,W,1,05,2.4,91.4,M,-20.6,M,,0000*5E

$GPGSA,A,3,28,04,17,20,02,,,,,,,,3.1,2.4,1.9*36

$GPRMC,210628.000,A,4451.0996,N,12314.1917,W,0.14,90.00,161106,,*2A

$GPGGA,210629.000,4451.0995,N,12314.1914,W,1,05,2.4,91.7,M,-20.6,M,,0000*5C

$GPGSA,A,3,28,04,17,20,02,,,,,,,,3.1,2.4,1.9*36

$GPRMC,210629.000,A,4451.0995,N,12314.1914,W,0.12,169.48,161106,,*16

$GPGGA,210630.000,4451.0995,N,12314.1911,W,1,05,2.4,92.0,M,-20.6,M,,0000*55

$GPGSA,A,3,28,04,17,20,02,,,,,,,,3.1,2.4,1.9*36

$GPGSV,3,1,10,09,57,273,,05,54,301,,04,51,127,35,07,48,058,*75

$GPGSV,3,2,10,17,45,055,44,24,30,052,,02,28,175,25,28,12,104,29*77

$GPGSV,3,3,10,31,10,062,,20,05,051,24*7A

$GPRMC,210630.000,A,4451.0995,N,12314.1911,W,0.50,76.14,161106,,*2B

$GPGGA,210631.000,4451.0994,N,12314.1911,W,1,05,2.4,92.0,M,-20.6,M,,0000*55

$GPGSA,A,3,28,04,17,20,02,,,,,,,,3.1,2.4,1.9*36

$GPRMC,210631.000,A,4451.0994,N,12314.1911,W,0.21,165.66,161106,,*1B

$GPGGA,210632.000,4451.0993,N,12314.1914,W,1,05,2.4,91.8,M,-20.6,M,,0000*5F

$GPGSA,A,3,28,04,17,20,02,,,,,,,,3.1,2.4,1.9*36

$GPRMC,210632.000,A,4451.0993,N,12314.1914,W,0.09,157.06,161106,,*17

$GPGGA,210633.000,4451.0992,N,12314.1916,W,1,05,2.4,91.8,M,-20.6,M,,0000*5D

$GPGSA,A,3,28,04,17,20,02,,,,,,,,3.1,2.4,1.9*36

$GPRMC,210633.000,A,4451.0992,N,12314.1916,W,0.32,237.23,161106,,*1F

$GPGGA,210634.000,4451.0991,N,12314.1914,W,1,05,2.4,92.3,M,-20.6,M,,0000*53

$GPGSA,A,3,28,04,17,20,02,,,,,,,,3.1,2.4,1.9*36

$GPRMC,210634.000,A,4451.0991,N,12314.1914,W,0.13,90.56,161106,,*27

$GPGGA,210635.000,4451.0990,N,12314.1906,W,1,05,2.4,92.3,M,-20.6,M,,0000*50

$GPGSA,A,3,28,04,17,20,02,,,,,,,,3.1,2.4,1.9*36

$GPGSV,3,1,10,09,57,273,,05,54,301,,04,51,127,35,07,48,058,*75

$GPGSV,3,2,10,17,45,055,44,24,30,052,,02,28,175,20,28,12,104,20*7B

$GPGSV,3,3,10,31,10,062,,20,05,051,25*7B

$GPRMC,210635.000,A,4451.0990,N,12314.1906,W,1.42,95.24,161106,,*21

$GPGGA,210636.000,4451.0989,N,12314.1900,W,1,05,2.4,92.6,M,-20.6,M,,0000*58

$GPGSA,A,3,28,04,17,20,02,,,,,,,,3.1,2.4,1.9*36

$GPRMC,210636.000,A,4451.0989,N,12314.1900,W,0.82,95.16,161106,,*20

$GPGGA,210637.000,4451.0987,N,12314.1894,W,1,05,2.4,92.6,M,-20.6,M,,0000*5B

$GPGSA,A,3,28,04,17,20,02,,,,,,,,3.1,2.4,1.9*36

$GPRMC,210637.000,A,4451.0987,N,12314.1894,W,0.89,115.06,161106,,*10

$GPGGA,210638.000,4451.0985,N,12314.1884,W,1,05,2.4,92.6,M,-20.6,M,,0000*57

$GPGSA,A,3,28,04,17,20,02,,,,,,,,3.1,2.4,1.9*36

$GPRMC,210638.000,A,4451.0985,N,12314.1884,W,1.92,95.84,161106,,*24

$GPGGA,210639.000,4451.0984,N,12314.1879,W,1,05,2.4,92.6,M,-20.6,M,,0000*55

$GPGSA,A,3,28,04,17,20,02,,,,,,,,3.1,2.4,1.9*36

$GPRMC,210639.000,A,4451.0984,N,12314.1879,W,1.16,104.81,161106,,*16

$GPGGA,210640.000,4451.0983,N,12314.1877,W,1,05,2.4,92.8,M,-20.6,M,,0000*5C

$GPGSA,A,3,28,04,17,20,02,,,,,,,,3.1,2.4,1.9*36

$GPGSV,3,1,10,09,57,273,,05,54,301,,04,51,127,36,07,48,058,*76

$GPGSV,3,2,10,17,45,055,44,24,30,052,,02,28,175,21,28,12,104,22*78

$GPGSV,3,3,10,31,10,062,,20,05,051,25*7B

$GPRMC,210640.000,A,4451.0983,N,12314.1877,W,0.56,101.51,161106,,*1C

$GPGGA,210641.000,4451.0983,N,12314.1871,W,1,05,2.4,92.8,M,-20.6,M,,0000*5B

$GPGSA,A,3,28,04,17,20,02,,,,,,,,3.1,2.4,1.9*36

$GPRMC,210641.000,A,4451.0983,N,12314.1871,W,1.18,82.95,161106,,*22

$GPGGA,210642.000,4451.0982,N,12314.1870,W,1,05,2.4,92.9,M,-20.6,M,,0000*59

$GPGSA,A,3,28,04,17,20,02,,,,,,,,3.1,2.4,1.9*36

$GPRMC,210642.000,A,4451.0982,N,12314.1870,W,0.23,125.16,161106,,*1F

$GPGGA,210643.000,4451.0982,N,12314.1875,W,1,05,2.4,92.9,M,-20.6,M,,0000*5D

$GPGSA,A,3,28,04,17,20,02,,,,,,,,3.1,2.4,1.9*36

$GPRMC,210643.000,A,4451.0982,N,12314.1875,W,0.41,239.55,161106,,*16

$GPGGA,210644.000,4451.0982,N,12314.1876,W,1,05,2.4,92.9,M,-20.6,M,,0000*59

$GPGSA,A,3,28,04,17,20,02,,,,,,,,3.1,2.4,1.9*36

$GPRMC,210644.000,A,4451.0982,N,12314.1876,W,0.80,113.65,161106,,*17

$GPGGA,210645.000,4451.0981,N,12314.1882,W,1,05,2.4,92.9,M,-20.6,M,,0000*50

$GPGSA,A,3,28,04,17,20,02,,,,,,,,3.1,2.4,1.9*36

$GPGSV,3,1,10,09,57,273,,05,54,301,,04,51,127,35,07,48,058,*75

$GPGSV,3,2,10,17,45,055,44,24,30,051,,02,28,175,21,28,12,104,15*7F

$GPGSV,3,3,10,31,10,062,,20,05,051,24*7A

$GPRMC,210645.000,A,4451.0981,N,12314.1882,W,0.66,124.98,161106,,*10

$GPGGA,210646.000,4451.0979,N,12314.1881,W,1,04,3.3,92.4,M,-20.6,M,,0000*5D

$GPGSA,A,3,28,04,17,02,,,,,,,,,4.7,3.3,3.3*3B

$GPRMC,210646.000,A,4451.0979,N,12314.1881,W,1.28,108.48,161106,,*1F

$GPGGA,210647.000,4451.0978,N,12314.1868,W,1,04,7.7,92.2,M,-20.6,M,,0000*5C

$GPGSA,A,3,28,04,17,20,,,,,,,,,9.0,7.7,4.8*3D

$GPRMC,210647.000,A,4451.0978,N,12314.1868,W,1.76,100.29,161106,,*1C

$GPGGA,210648.000,4451.0977,N,12314.1853,W,1,04,7.7,92.2,M,-20.6,M,,0000*54

$GPGSA,A,3,28,04,17,20,,,,,,,,,9.1,7.7,4.8*3C

$GPRMC,210648.000,A,4451.0977,N,12314.1853,W,3.18,93.95,161106,,*22

$GPGGA,210649.000,4451.0976,N,12314.1843,W,1,04,7.7,92.1,M,-20.6,M,,0000*56

$GPGSA,A,3,28,04,17,20,,,,,,,,,9.1,7.7,4.8*3C

$GPRMC,210649.000,A,4451.0976,N,12314.1843,W,3.53,101.81,161106,,*13

$GPGGA,210650.000,4451.0975,N,12314.1838,W,1,04,7.7,92.0,M,-20.6,M,,0000*50

$GPGSA,A,3,28,04,17,20,,,,,,,,,9.1,7.7,4.8*3C

$GPGSV,3,1,10,09,57,273,,05,54,301,,04,51,127,32,07,48,058,*72

$GPGSV,3,2,10,17,45,055,43,24,30,051,,02,28,175,18,28,12,104,18*7F

$GPGSV,3,3,10,31,09,062,,20,05,051,20*76

$GPRMC,210650.000,A,4451.0975,N,12314.1838,W,2.89,104.66,161106,,*1E

$GPGGA,210651.000,4451.0974,N,12314.1836,W,1,04,7.7,92.1,M,-20.6,M,,0000*5F

$GPGSA,A,3,28,04,17,20,,,,,,,,,9.1,7.7,4.8*3C

$GPRMC,210651.000,A,4451.0974,N,12314.1836,W,1.32,98.74,161106,,*24

$GPGGA,210652.000,4451.0973,N,12314.1847,W,1,05,2.4,90.3,M,-20.6,M,,0000*5A

$GPGSA,A,3,28,04,17,20,02,,,,,,,,3.1,2.4,1.9*36

$GPRMC,210652.000,A,4451.0973,N,12314.1847,W,1.57,107.59,161106,,*1D

$GPGGA,210653.000,4451.0973,N,12314.1849,W,1,05,2.4,88.9,M,-20.6,M,,0000*56

$GPGSA,A,3,28,04,17,20,02,,,,,,,,3.1,2.4,1.9*36

$GPRMC,210653.000,A,4451.0973,N,12314.1849,W,2.01,90.68,161106,,*2F

$GPGGA,210654.000,4451.0973,N,12314.1849,W,1,05,2.4,88.2,M,-20.6,M,,0000*5A

$GPGSA,A,3,28,04,17,20,02,,,,,,,,3.1,2.4,1.9*36

$GPRMC,210654.000,A,4451.0973,N,12314.1849,W,1.57,83.00,161106,,*24

$GPGGA,210655.000,4451.0974,N,12314.1851,W,1,04,7.7,87.5,M,-20.6,M,,0000*5A

$GPGSA,A,3,28,04,17,20,,,,,,,,,9.1,7.7,4.8*3C

$GPGSV,3,1,10,09,57,273,,05,54,301,,04,51,127,34,07,48,058,*74

$GPGSV,3,2,10,17,45,055,43,24,30,051,,02,28,175,19,28,12,104,26*73

$GPGSV,3,3,10,31,09,062,,20,05,051,21*77

$GPRMC,210655.000,A,4451.0974,N,12314.1851,W,0.07,167.35,161106,,*12

$GPGGA,210656.000,4451.0975,N,12314.1872,W,1,05,2.4,85.4,M,-20.6,M,,0000*5D

$GPGSA,A,3,28,04,17,20,02,,,,,,,,3.1,2.4,1.9*36

$GPRMC,210656.000,A,4451.0975,N,12314.1872,W,0.72,290.25,161106,,*19

$GPGGA,210657.000,4451.0975,N,12314.1872,W,1,04,7.7,85.2,M,-20.6,M,,0000*5D

$GPGSA,A,3,28,04,17,20,,,,,,,,,9.1,7.7,4.8*3C

$GPRMC,210657.000,A,4451.0975,N,12314.1872,W,0.36,328.12,161106,,*1E

$GPGGA,210658.000,4451.0975,N,12314.1870,W,1,04,7.7,85.1,M,-20.6,M,,0000*53

$GPGSA,A,3,28,04,17,20,,,,,,,,,9.1,7.7,4.8*3C

$GPRMC,210658.000,A,4451.0975,N,12314.1870,W,0.24,306.60,161106,,*19

$GPGGA,210659.000,4451.0974,N,12314.1873,W,1,04,7.7,84.7,M,-20.6,M,,0000*57

$GPGSA,A,3,28,04,17,20,,,,,,,,,9.1,7.7,4.8*3C

$GPRMC,210659.000,A,4451.0974,N,12314.1873,W,0.81,264.86,161106,,*18

$GPGGA,210700.000,4451.0974,N,12314.1877,W,1,04,7.7,84.1,M,-20.6,M,,0000*58

$GPGSA,A,3,28,04,17,20,,,,,,,,,9.1,7.7,4.8*3C

$GPGSV,3,1,10,09,57,273,,05,54,301,,04,51,127,34,07,48,058,*74

$GPGSV,3,2,10,17,45,055,43,24,30,051,,02,28,175,18,28,12,104,27*73

$GPGSV,3,3,10,31,09,062,,20,05,051,21*77

$GPRMC,210700.000,A,4451.0974,N,12314.1877,W,0.72,273.51,161106,,*11

$GPGGA,210701.000,4451.0974,N,12314.1889,W,1,05,2.4,83.2,M,-20.6,M,,0000*5B

$GPGSA,A,3,28,04,17,20,02,,,,,,,,3.1,2.4,1.9*36

$GPRMC,210701.000,A,4451.0974,N,12314.1889,W,0.79,276.87,161106,,*14

$GPGGA,210702.000,4451.0974,N,12314.1906,W,1,05,2.4,82.0,M,-20.6,M,,0000*5D

$GPGSA,A,3,28,04,17,20,02,,,,,,,,3.1,2.4,1.9*36

$GPRMC,210702.000,A,4451.0974,N,12314.1906,W,1.34,263.85,161106,,*1F

$GPGGA,210703.000,4451.0974,N,12314.1927,W,1,05,2.4,80.0,M,-20.6,M,,0000*5D

$GPGSA,A,3,28,04,17,20,02,,,,,,,,3.1,2.4,1.9*36

$GPRMC,210703.000,A,4451.0974,N,12314.1927,W,1.64,266.99,161106,,*10

$GPGGA,210704.000,4451.0974,N,12314.1940,W,1,05,2.4,78.8,M,-20.6,M,,0000*54

$GPGSA,A,3,28,04,17,20,02,,,,,,,,3.1,2.4,1.9*36

$GPRMC,210704.000,A,4451.0974,N,12314.1940,W,1.64,270.60,161106,,*17

$GPGGA,210705.000,4451.0973,N,12314.1940,W,1,05,2.4,78.9,M,-20.6,M,,0000*53

$GPGSA,A,3,28,04,17,20,02,,,,,,,,3.1,2.4,1.9*36

$GPGSV,3,1,10,09,57,273,,05,54,301,,04,51,127,34,07,48,058,*74

$GPGSV,3,2,10,17,45,055,44,24,30,051,,02,28,175,18,28,12,104,28*7B

$GPGSV,3,3,10,31,09,062,,20,05,051,21*77

$GPRMC,210705.000,A,4451.0973,N,12314.1940,W,1.01,296.40,161106,,*18

$GPGGA,210706.000,4451.0973,N,12314.1931,W,1,05,2.4,80.1,M,-20.6,M,,0000*59

$GPGSA,A,3,28,04,17,20,02,,,,,,,,3.1,2.4,1.9*36

$GPRMC,210706.000,A,4451.0973,N,12314.1931,W,0.60,307.43,161106,,*11

$GPGGA,210707.000,4451.0972,N,12314.1923,W,1,05,2.4,81.2,M,-20.6,M,,0000*58

$GPGSA,A,3,28,04,17,20,02,,,,,,,,3.1,2.4,1.9*36

$GPRMC,210707.000,A,4451.0972,N,12314.1923,W,0.35,317.21,161106,,*17

$GPGGA,210708.000,4451.0971,N,12314.1916,W,1,05,2.4,82.0,M,-20.6,M,,0000*53

$GPGSA,A,3,28,04,17,20,02,,,,,,,,3.1,2.4,1.9*36

$GPRMC,210708.000,A,4451.0971,N,12314.1916,W,0.26,282.92,161106,,*1A

$GPGGA,210709.000,4451.0970,N,12314.1904,W,1,05,2.4,83.5,M,-20.6,M,,0000*54

$GPGSA,A,3,28,04,17,20,02,,,,,,,,3.1,2.4,1.9*36

$GPRMC,210709.000,A,4451.0970,N,12314.1904,W,0.45,250.64,161106,,*1A

$GPGGA,210710.000,4451.0969,N,12314.1904,W,1,05,2.4,83.8,M,-20.6,M,,0000*59

$GPGSA,A,3,28,04,17,20,02,,,,,,,,3.1,2.4,1.9*36

$GPGSV,3,1,10,09,57,273,,05,54,301,,04,51,127,34,07,48,058,*74

$GPGSV,3,2,10,17,45,055,44,24,30,051,,02,28,175,19,28,12,104,29*7B

$GPGSV,3,3,10,31,09,062,,20,05,051,22*74

$GPRMC,210710.000,A,4451.0969,N,12314.1904,W,0.43,259.57,161106,,*15

$GPGGA,210711.000,4451.0968,N,12314.1900,W,1,05,2.4,84.4,M,-20.6,M,,0000*56

$GPGSA,A,3,28,04,17,20,02,,,,,,,,3.1,2.4,1.9*36

$GPRMC,210711.000,A,4451.0968,N,12314.1900,W,0.22,27.47,161106,,*2C

$GPGGA,210712.000,4451.0968,N,12314.1894,W,1,05,2.4,84.9,M,-20.6,M,,0000*54

$GPGSA,A,3,28,04,17,20,02,,,,,,,,3.1,2.4,1.9*36

$GPRMC,210712.000,A,4451.0968,N,12314.1894,W,0.04,297.66,161106,,*1D

$GPGGA,210713.000,4451.0967,N,12314.1892,W,1,05,2.4,85.2,M,-20.6,M,,0000*56

$GPGSA,A,3,28,04,17,20,02,,,,,,,,3.1,2.4,1.9*36

$GPRMC,210713.000,A,4451.0967,N,12314.1892,W,0.23,65.82,161106,,*25

$GPGGA,210714.000,4451.0967,N,12314.1893,W,1,05,2.4,85.2,M,-20.6,M,,0000*50

$GPGSA,A,3,28,04,17,20,02,,,,,,,,3.1,2.4,1.9*36

$GPRMC,210714.000,A,4451.0967,N,12314.1893,W,0.06,284.27,161106,,*16

$GPGGA,210715.000,4451.0967,N,12314.1894,W,1,05,2.4,85.0,M,-20.6,M,,0000*54

$GPGSA,A,3,28,04,17,20,02,,,,,,,,3.1,2.4,1.9*36

$GPGSV,3,1,10,09,57,273,,05,54,301,,04,51,126,36,07,48,058,*77

$GPGSV,3,2,10,17,45,055,44,24,30,051,,02,28,175,20,28,12,104,29*71

$GPGSV,3,3,10,31,09,062,,20,05,051,15*70

$GPRMC,210715.000,A,4451.0967,N,12314.1894,W,0.18,273.23,161106,,*13

$GPGGA,210716.000,4451.0967,N,12314.1894,W,1,05,2.4,84.8,M,-20.6,M,,0000*5E

$GPGSA,A,3,28,04,17,20,02,,,,,,,,3.1,2.4,1.9*36

$GPRMC,210716.000,A,4451.0967,N,12314.1894,W,0.29,44.50,161106,,*20

$GPGGA,210717.000,4451.0968,N,12314.1900,W,1,05,2.4,84.0,M,-20.6,M,,0000*54

$GPGSA,A,3,28,04,17,20,02,,,,,,,,3.1,2.4,1.9*36

$GPRMC,210717.000,A,4451.0968,N,12314.1900,W,0.37,54.38,161106,,*22

$GPGGA,210718.000,4451.0968,N,12314.1899,W,1,04,3.3,83.9,M,-20.6,M,,0000*53

$GPGSA,A,3,28,04,17,02,,,,,,,,,4.7,3.3,3.3*3B

$GPRMC,210718.000,A,4451.0968,N,12314.1899,W,0.03,263.23,161106,,*17

$GPGGA,210719.000,4451.0968,N,12314.1892,W,1,04,3.3,84.4,M,-20.6,M,,0000*53

$GPGSA,A,3,28,04,17,02,,,,,,,,,4.7,3.3,3.3*3B

$GPRMC,210719.000,A,4451.0968,N,12314.1892,W,0.72,247.87,161106,,*13

$GPGGA,210720.000,4451.0968,N,12314.1883,W,1,04,3.3,85.1,M,-20.6,M,,0000*5D

$GPGSA,A,3,28,04,17,02,,,,,,,,,4.7,3.3,3.3*3B

$GPGSV,3,1,10,09,57,273,,04,51,126,36,07,48,058,,17,45,055,44*76

$GPGSV,3,2,10,05,31,297,14,24,30,051,,02,28,175,19,28,12,104,30*7A

$GPGSV,3,3,10,31,09,062,,20,05,051,*74

$GPRMC,210720.000,A,4451.0968,N,12314.1883,W,0.15,299.21,161106,,*17

$GPGGA,210721.000,4451.0968,N,12314.1887,W,1,04,3.3,84.7,M,-20.6,M,,0000*5F

$GPGSA,A,3,28,04,17,02,,,,,,,,,4.7,3.3,3.3*3B

$GPRMC,210721.000,A,4451.0968,N,12314.1887,W,0.92,250.38,161106,,*10

$GPGGA,210722.000,4451.0968,N,12314.1882,W,1,04,3.3,85.1,M,-20.6,M,,0000*5E

$GPGSA,A,3,28,04,17,02,,,,,,,,,4.7,3.3,3.3*3B

$GPRMC,210722.000,A,4451.0968,N,12314.1882,W,0.31,278.41,161106,,*1B

$GPGGA,210723.000,4451.0968,N,12314.1876,W,1,04,3.3,85.6,M,-20.6,M,,0000*53

$GPGSA,A,3,28,04,17,02,,,,,,,,,4.7,3.3,3.3*3B

$GPRMC,210723.000,A,4451.0968,N,12314.1876,W,0.12,315.59,161106,,*13

$GPGGA,210724.000,4451.0968,N,12314.1870,W,1,04,3.3,86.0,M,-20.6,M,,0000*57

$GPGSA,A,3,28,04,17,02,,,,,,,,,4.7,3.3,3.3*3B

$GPRMC,210724.000,A,4451.0968,N,12314.1870,W,0.43,62.03,161106,,*2A

$GPGGA,210725.000,4451.0968,N,12314.1864,W,1,04,3.3,86.5,M,-20.6,M,,0000*56

$GPGSA,A,3,28,04,17,02,,,,,,,,,4.7,3.3,3.3*3B

$GPGSV,3,1,10,09,57,273,,04,51,126,37,07,48,058,,17,45,055,44*77

$GPGSV,3,2,10,05,31,297,17,24,30,051,,02,28,175,19,28,12,104,31*78

$GPGSV,3,3,10,31,09,062,,20,05,051,07*73

$GPRMC,210725.000,A,4451.0968,N,12314.1864,W,0.25,83.09,161106,,*2B

$GPGGA,210726.000,4451.0968,N,12314.1860,W,1,04,3.3,86.8,M,-20.6,M,,0000*5C

$GPGSA,A,3,28,04,17,02,,,,,,,,,4.7,3.3,3.3*3B

$GPRMC,210726.000,A,4451.0968,N,12314.1860,W,0.49,74.86,161106,,*29

$GPGGA,210727.000,4451.0968,N,12314.1856,W,1,04,3.3,87.0,M,-20.6,M,,0000*51

$GPGSA,A,3,28,04,17,02,,,,,,,,,4.7,3.3,3.3*3B

$GPRMC,210727.000,A,4451.0968,N,12314.1856,W,0.96,71.03,161106,,*27

$GPGGA,210728.000,4451.0970,N,12314.1859,W,1,05,2.4,86.3,M,-20.6,M,,0000*5D

$GPGSA,A,3,28,04,17,20,02,,,,,,,,3.1,2.4,1.9*36

$GPRMC,210728.000,A,4451.0970,N,12314.1859,W,0.17,134.17,161106,,*12

$GPGGA,210729.000,4451.0970,N,12314.1861,W,1,05,2.4,85.8,M,-20.6,M,,0000*5F

$GPGSA,A,3,28,04,17,20,02,,,,,,,,3.1,2.4,1.9*36

$GPRMC,210729.000,A,4451.0970,N,12314.1861,W,0.13,42.15,161106,,*2E

$GPGGA,210730.000,4451.0970,N,12314.1869,W,1,05,2.4,85.1,M,-20.6,M,,0000*56

$GPGSA,A,3,28,04,17,20,02,,,,,,,,3.1,2.4,1.9*36

$GPGSV,3,1,10,09,57,273,,04,51,126,37,07,48,058,,17,45,055,44*77

$GPGSV,3,2,10,05,31,297,,24,30,051,,02,28,175,19,28,12,104,32*7D

$GPGSV,3,3,10,31,09,062,,20,05,051,23*75

$GPRMC,210730.000,A,4451.0970,N,12314.1869,W,0.27,55.02,161106,,*29

$GPGGA,210731.000,4451.0970,N,12314.1872,W,1,05,2.4,85.0,M,-20.6,M,,0000*5C

$GPGSA,A,3,28,04,17,20,02,,,,,,,,3.1,2.4,1.9*36

$GPRMC,210731.000,A,4451.0970,N,12314.1872,W,0.37,262.24,161106,,*11

$GPGGA,210732.000,4451.0969,N,12314.1874,W,1,05,2.4,85.0,M,-20.6,M,,0000*51

$GPGSA,A,3,28,04,17,20,02,,,,,,,,3.1,2.4,1.9*36

$GPRMC,210732.000,A,4451.0969,N,12314.1874,W,0.78,258.92,161106,,*13

$GPGGA,210733.000,4451.0969,N,12314.1869,W,1,05,2.4,85.6,M,-20.6,M,,0000*5A

$GPGSA,A,3,28,04,17,20,02,,,,,,,,3.1,2.4,1.9*36

$GPRMC,210733.000,A,4451.0969,N,12314.1869,W,0.28,349.76,161106,,*10

$GPGGA,210734.000,4451.0969,N,12314.1871,W,1,05,2.4,85.6,M,-20.6,M,,0000*54

$GPGSA,A,3,28,04,17,20,02,,,,,,,,3.1,2.4,1.9*36

$GPRMC,210734.000,A,4451.0969,N,12314.1871,W,0.26,55.74,161106,,*2C

$GPGGA,210735.000,4451.0969,N,12314.1869,W,1,05,2.4,85.9,M,-20.6,M,,0000*53

$GPGSA,A,3,28,04,17,20,02,,,,,,,,3.1,2.4,1.9*36

$GPGSV,3,1,10,09,57,273,,04,51,126,38,07,48,058,,17,45,055,44*78

$GPGSV,3,2,10,05,31,297,15,24,30,051,,02,28,175,17,28,12,104,33*76

$GPGSV,3,3,10,31,09,062,,20,05,051,23*75

$GPRMC,210735.000,A,4451.0969,N,12314.1869,W,0.15,55.21,161106,,*24

$GPGGA,210736.000,4451.0969,N,12314.1865,W,1,05,2.4,86.1,M,-20.6,M,,0000*57

$GPGSA,A,3,28,04,17,20,02,,,,,,,,3.1,2.4,1.9*36

$GPRMC,210736.000,A,4451.0969,N,12314.1865,W,0.25,59.91,161106,,*2F

$GPGGA,210737.000,4451.0968,N,12314.1859,W,1,05,2.4,86.9,M,-20.6,M,,0000*50

$GPGSA,A,3,28,04,17,20,02,,,,,,,,3.1,2.4,1.9*36

$GPRMC,210737.000,A,4451.0968,N,12314.1859,W,0.20,100.63,161106,,*15

$GPGGA,210738.000,4451.0968,N,12314.1849,W,1,05,2.4,88.0,M,-20.6,M,,0000*59

$GPGSA,A,3,28,04,17,20,02,,,,,,,,3.1,2.4,1.9*36

$GPRMC,210738.000,A,4451.0968,N,12314.1849,W,0.37,98.78,161106,,*27

$GPGGA,210739.000,4451.0968,N,12314.1847,W,1,04,7.8,88.2,M,-20.6,M,,0000*5C

$GPGSA,A,3,28,04,17,20,,,,,,,,,9.1,7.8,4.8*33

$GPRMC,210739.000,A,4451.0968,N,12314.1847,W,0.36,96.68,161106,,*26

$GPGGA,210740.000,4451.0969,N,12314.1847,W,1,04,7.8,88.0,M,-20.6,M,,0000*51

$GPGSA,A,3,28,04,17,20,,,,,,,,,9.1,7.8,4.8*33

$GPGSV,3,1,10,09,57,273,,04,51,126,38,07,48,058,,17,45,055,44*78

$GPGSV,3,2,10,05,31,297,23,24,30,051,,02,28,175,11,28,12,104,33*75

$GPGSV,3,3,10,31,09,062,,20,05,051,16*73

$GPRMC,210740.000,A,4451.0969,N,12314.1847,W,0.36,90.71,161106,,*27

$GPGGA,210741.000,4451.0969,N,12314.1846,W,1,04,7.8,87.9,M,-20.6,M,,0000*57

$GPGSA,A,3,28,04,17,20,,,,,,,,,9.1,7.8,4.8*33

$GPRMC,210741.000,A,4451.0969,N,12314.1846,W,0.38,92.36,161106,,*28

$GPGGA,210742.000,4451.0969,N,12314.1844,W,1,04,7.8,88.2,M,-20.6,M,,0000*52

$GPGSA,A,3,28,04,17,20,,,,,,,,,9.1,7.8,4.8*33

$GPRMC,210742.000,A,4451.0969,N,12314.1844,W,0.22,138.01,161106,,*17

$GPGGA,210743.000,4451.0969,N,12314.1841,W,1,04,7.8,88.6,M,-20.6,M,,0000*52

$GPGSA,A,3,28,04,17,20,,,,,,,,,9.1,7.8,4.8*33

$GPRMC,210743.000,A,4451.0969,N,12314.1841,W,0.22,137.33,161106,,*1D

$GPGGA,210744.000,4451.0969,N,12314.1840,W,1,04,7.8,88.8,M,-20.6,M,,0000*5A

$GPGSA,A,3,28,04,17,20,,,,,,,,,9.1,7.8,4.8*33

$GPRMC,210744.000,A,4451.0969,N,12314.1840,W,0.36,103.62,161106,,*1D

$GPGGA,210745.000,4451.0969,N,12314.1839,W,1,04,7.8,88.8,M,-20.6,M,,0000*55

$GPGSA,A,3,28,04,17,20,,,,,,,,,9.1,7.8,4.8*33

$GPGSV,3,1,10,09,57,273,,04,51,126,38,07,48,058,,17,45,055,44*78

$GPGSV,3,2,10,05,31,297,22,24,30,051,,02,28,175,12,28,12,104,33*77

$GPGSV,3,3,10,31,09,062,,20,05,051,19*7C

$GPRMC,210745.000,A,4451.0969,N,12314.1839,W,0.57,86.98,161106,,*2C

$GPGGA,210746.000,4451.0970,N,12314.1840,W,1,04,7.8,88.7,M,-20.6,M,,0000*5F

$GPGSA,A,3,28,04,17,20,,,,,,,,,9.1,7.8,4.8*33

$GPRMC,210746.000,A,4451.0970,N,12314.1840,W,0.81,80.83,161106,,*2E

$GPGGA,210747.000,4451.0970,N,12314.1835,W,1,04,7.8,89.4,M,-20.6,M,,0000*5E

$GPGSA,A,3,28,04,17,20,,,,,,,,,9.1,7.8,4.8*33

$GPRMC,210747.000,A,4451.0970,N,12314.1835,W,0.60,93.86,161106,,*25

$GPGGA,210748.000,4451.0969,N,12314.1831,W,1,04,7.8,89.9,M,-20.6,M,,0000*50

$GPGSA,A,3,28,04,17,20,,,,,,,,,9.1,7.8,4.8*33

$GPRMC,210748.000,A,4451.0969,N,12314.1831,W,0.61,89.49,161106,,*2F

$GPGGA,210749.000,4451.0970,N,12314.1832,W,1,04,7.8,89.8,M,-20.6,M,,0000*5B

$GPGSA,A,3,28,04,17,20,,,,,,,,,9.1,7.8,4.8*33

$GPRMC,210749.000,A,4451.0970,N,12314.1832,W,0.82,81.97,161106,,*23

$GPGGA,210750.000,4451.0970,N,12314.1833,W,1,04,7.8,89.6,M,-20.6,M,,0000*5C

$GPGSA,A,3,28,04,17,20,,,,,,,,,9.1,7.8,4.8*33

$GPGSV,3,1,10,09,57,272,,04,51,126,38,07,48,058,,17,44,055,43*7F

$GPGSV,3,2,10,05,31,297,22,24,29,051,,02,29,175,,28,11,104,33*7E

$GPGSV,3,3,10,31,09,062,,20,05,051,21*77

$GPRMC,210750.000,A,4451.0970,N,12314.1833,W,0.88,81.18,161106,,*27

$GPGGA,210751.000,4451.0971,N,12314.1836,W,1,04,7.8,89.1,M,-20.6,M,,0000*5E

$GPGSA,A,3,28,04,17,20,,,,,,,,,9.1,7.8,4.8*33

$GPRMC,210751.000,A,4451.0971,N,12314.1836,W,0.57,76.84,161106,,*2D

$GPGGA,210752.000,4451.0971,N,12314.1851,W,1,05,2.4,87.9,M,-20.6,M,,0000*52

$GPGSA,A,3,28,04,17,20,02,,,,,,,,3.1,2.4,1.9*36

$GPRMC,210752.000,A,4451.0971,N,12314.1851,W,0.46,236.45,161106,,*14

$GPGGA,210753.000,4451.0971,N,12314.1813,W,1,05,2.4,91.4,M,-20.6,M,,0000*5F

$GPGSA,A,3,28,04,17,20,02,,,,,,,,3.1,2.4,1.9*36

$GPRMC,210753.000,A,4451.0971,N,12314.1813,W,0.45,64.26,161106,,*20

$GPGGA,210754.000,4451.0971,N,12314.1810,W,1,05,2.4,92.0,M,-20.6,M,,0000*5C

$GPGSA,A,3,28,04,17,20,02,,,,,,,,3.1,2.4,1.9*36

$GPRMC,210754.000,A,4451.0971,N,12314.1810,W,0.89,78.14,161106,,*28

$GPGGA,210755.000,4451.0971,N,12314.1821,W,1,05,2.4,91.2,M,-20.6,M,,0000*5E

$GPGSA,A,3,28,04,17,20,02,,,,,,,,3.1,2.4,1.9*36

$GPGSV,3,1,10,09,57,272,,04,51,126,38,07,48,058,,17,44,055,44*78

$GPGSV,3,2,10,05,31,297,22,24,29,051,,02,29,175,23,28,11,104,33*7F

$GPGSV,3,3,10,31,09,062,,20,05,051,15*70

$GPRMC,210755.000,A,4451.0971,N,12314.1821,W,0.25,196.17,161106,,*1F

$GPGGA,210756.000,4451.0971,N,12314.1835,W,1,05,2.4,90.2,M,-20.6,M,,0000*59

$GPGSA,A,3,28,04,17,20,02,,,,,,,,3.1,2.4,1.9*36

$GPRMC,210756.000,A,4451.0971,N,12314.1835,W,0.31,69.66,161106,,*2B

$GPGGA,210757.000,4451.0971,N,12314.1832,W,1,05,2.4,90.5,M,-20.6,M,,0000*58

$GPGSA,A,3,28,04,17,20,02,,,,,,,,3.1,2.4,1.9*36

$GPRMC,210757.000,A,4451.0971,N,12314.1832,W,0.26,81.56,161106,,*2E

$GPGGA,210758.000,4451.0970,N,12314.1830,W,1,05,2.4,91.0,M,-20.6,M,,0000*50

$GPGSA,A,3,28,04,17,20,02,,,,,,,,3.1,2.4,1.9*36

$GPRMC,210758.000,A,4451.0970,N,12314.1830,W,0.66,75.58,161106,,*23

$GPGGA,210759.000,4451.0971,N,12314.1831,W,1,05,2.4,91.0,M,-20.6,M,,0000*51

$GPGSA,A,3,28,04,17,20,02,,,,,,,,3.1,2.4,1.9*36

$GPRMC,210759.000,A,4451.0971,N,12314.1831,W,0.31,98.81,161106,,*27

$GPGGA,210800.000,4451.0970,N,12314.1832,W,1,05,2.4,91.1,M,-20.6,M,,0000*51

$GPGSA,A,3,28,04,17,20,02,,,,,,,,3.1,2.4,1.9*36

$GPGSV,3,1,10,09,57,272,,04,51,126,37,07,48,058,,17,44,055,42*71

$GPGSV,3,2,10,05,31,297,22,24,29,051,,02,29,175,24,28,11,104,34*7F

$GPGSV,3,3,10,31,09,062,,20,05,051,18*7D

$GPRMC,210800.000,A,4451.0970,N,12314.1832,W,0.39,81.57,161106,,*2D

$GPGGA,210801.000,4451.0970,N,12314.1832,W,1,05,2.4,91.5,M,-20.6,M,,0000*54

$GPGSA,A,3,28,04,17,20,02,,,,,,,,3.1,2.4,1.9*36

$GPRMC,210801.000,A,4451.0970,N,12314.1832,W,0.54,84.38,161106,,*2B

$GPGGA,210802.000,4451.0970,N,12314.1835,W,1,05,2.4,91.4,M,-20.6,M,,0000*51

$GPGSA,A,3,28,04,17,20,02,,,,,,,,3.1,2.4,1.9*36

$GPRMC,210802.000,A,4451.0970,N,12314.1835,W,0.23,123.26,161106,,*1C

$GPGGA,210803.000,4451.0970,N,12314.1830,W,1,05,2.4,92.0,M,-20.6,M,,0000*52

$GPGSA,A,3,28,04,17,20,02,,,,,,,,3.1,2.4,1.9*36

$GPRMC,210803.000,A,4451.0970,N,12314.1830,W,0.22,115.27,161106,,*1D

$GPGGA,210804.000,4451.0970,N,12314.1832,W,1,05,2.4,92.0,M,-20.6,M,,0000*57

$GPGSA,A,3,28,04,17,20,02,,,,,,,,3.1,2.4,1.9*36

$GPRMC,210804.000,A,4451.0970,N,12314.1832,W,0.49,96.34,161106,,*2D

$GPGGA,210805.000,4451.0970,N,12314.1828,W,1,05,2.4,92.4,M,-20.6,M,,0000*59

$GPGSA,A,3,28,04,17,20,02,,,,,,,,3.1,2.4,1.9*36

$GPGSV,3,1,10,09,57,272,,04,51,126,37,07,48,058,,17,44,055,42*71

$GPGSV,3,2,10,05,31,297,14,24,29,051,,02,29,175,24,28,11,104,34*7A

$GPGSV,3,3,10,31,09,062,,20,05,051,18*7D

$GPRMC,210805.000,A,4451.0970,N,12314.1828,W,0.57,89.34,161106,,*26

$GPGGA,210806.000,4451.0970,N,12314.1825,W,1,05,2.4,92.5,M,-20.6,M,,0000*56

$GPGSA,A,3,28,04,17,20,02,,,,,,,,3.1,2.4,1.9*36

$GPRMC,210806.000,A,4451.0970,N,12314.1825,W,0.24,117.03,161106,,*1E

$GPGGA,210807.000,4451.0970,N,12314.1831,W,1,05,2.4,92.1,M,-20.6,M,,0000*56

$GPGSA,A,3,28,04,17,20,02,,,,,,,,3.1,2.4,1.9*36

$GPRMC,210807.000,A,4451.0970,N,12314.1831,W,0.62,239.93,161106,,*1E

$GPGGA,210808.000,4451.0970,N,12314.1834,W,1,05,2.4,91.8,M,-20.6,M,,0000*56

$GPGSA,A,3,28,04,17,20,02,,,,,,,,3.1,2.4,1.9*36

$GPRMC,210808.000,A,4451.0970,N,12314.1834,W,0.30,44.07,161106,,*26

$GPGGA,210809.000,4451.0971,N,12314.1849,W,1,05,2.4,90.3,M,-20.6,M,,0000*56

$GPGSA,A,3,28,04,17,20,02,,,,,,,,3.1,2.4,1.9*36

$GPRMC,210809.000,A,4451.0971,N,12314.1849,W,0.20,269.54,161106,,*16

$GPGGA,210810.000,4451.0972,N,12314.1863,W,1,05,2.4,89.1,M,-20.6,M,,0000*5F

$GPGSA,A,3,28,04,17,20,02,,,,,,,,3.1,2.4,1.9*36

$GPGSV,3,1,10,09,57,272,,04,51,126,37,07,48,058,,17,44,055,42*71

$GPGSV,3,2,10,05,31,297,11,24,29,051,,02,29,175,24,28,11,104,34*7F

$GPGSV,3,3,10,31,09,062,,20,05,051,19*7C

$GPRMC,210810.000,A,4451.0972,N,12314.1863,W,0.32,275.19,161106,,*12

$GPGGA,210811.000,4451.0972,N,12314.1871,W,1,05,2.4,88.5,M,-20.6,M,,0000*58

$GPGSA,A,3,28,04,17,20,02,,,,,,,,3.1,2.4,1.9*36

$GPRMC,210811.000,A,4451.0972,N,12314.1871,W,0.59,263.75,161106,,*10

$GPGGA,210812.000,4451.0972,N,12314.1879,W,1,05,2.4,88.0,M,-20.6,M,,0000*56

$GPGSA,A,3,28,04,17,20,02,,,,,,,,3.1,2.4,1.9*36

$GPRMC,210812.000,A,4451.0972,N,12314.1879,W,0.66,266.08,161106,,*18

$GPGGA,210813.000,4451.0972,N,12314.1880,W,1,05,2.4,87.8,M,-20.6,M,,0000*56

$GPGSA,A,3,28,04,17,20,02,,,,,,,,3.1,2.4,1.9*36

$GPRMC,210813.000,A,4451.0972,N,12314.1880,W,1.15,257.14,161106,,*15

$GPGGA,210814.000,4451.0972,N,12314.1881,W,1,05,2.4,87.8,M,-20.6,M,,0000*50

$GPGSA,A,3,28,04,17,20,02,,,,,,,,3.1,2.4,1.9*36

$GPRMC,210814.000,A,4451.0972,N,12314.1881,W,0.97,264.11,161106,,*1D

$GPGGA,210815.000,4451.0972,N,12314.1881,W,1,05,2.4,87.6,M,-20.6,M,,0000*5F

$GPGSA,A,3,28,04,17,20,02,,,,,,,,3.1,2.4,1.9*36

$GPGSV,3,1,10,09,57,272,,04,51,126,37,07,47,058,,17,44,055,42*7E

$GPGSV,3,2,10,05,31,297,,24,29,051,,02,29,175,24,28,11,104,34*7F

$GPGSV,3,3,10,31,09,062,,20,05,051,21*77

$GPRMC,210815.000,A,4451.0972,N,12314.1881,W,0.48,297.07,161106,,*15

$GPGGA,210816.000,4451.0972,N,12314.1876,W,1,05,2.4,88.0,M,-20.6,M,,0000*5D

$GPGSA,A,3,28,04,17,20,02,,,,,,,,3.1,2.4,1.9*36

$GPRMC,210816.000,A,4451.0972,N,12314.1876,W,0.48,45.01,161106,,*25

$GPGGA,210817.000,4451.0973,N,12314.1874,W,1,05,2.4,88.1,M,-20.6,M,,0000*5E

$GPGSA,A,3,28,04,17,20,02,,,,,,,,3.1,2.4,1.9*36

$GPRMC,210817.000,A,4451.0973,N,12314.1874,W,0.09,349.48,161106,,*10

$GPGGA,210818.000,4451.0973,N,12314.1870,W,1,05,2.4,88.6,M,-20.6,M,,0000*52

$GPGSA,A,3,28,04,17,20,02,,,,,,,,3.1,2.4,1.9*36

$GPRMC,210818.000,A,4451.0973,N,12314.1870,W,0.21,56.97,161106,,*2E

$GPGGA,210819.000,4451.0974,N,12314.1864,W,1,05,2.4,89.0,M,-20.6,M,,0000*56

$GPGSA,A,3,28,04,17,20,02,,,,,,,,3.1,2.4,1.9*36

$GPRMC,210819.000,A,4451.0974,N,12314.1864,W,0.73,68.31,161106,,*2B

$GPGGA,210820.000,4451.0974,N,12314.1870,W,1,05,2.4,88.4,M,-20.6,M,,0000*5C

$GPGSA,A,3,28,04,17,20,02,,,,,,,,3.1,2.4,1.9*36

$GPGSV,3,1,09,09,57,272,,04,52,126,37,17,44,055,42,05,31,297,09*7E

$GPGSV,3,2,09,24,29,051,,02,29,175,24,28,11,104,35,31,09,062,*72

$GPGSV,3,3,09,20,05,051,22*43

$GPRMC,210820.000,A,4451.0974,N,12314.1870,W,0.09,96.69,161106,,*25

$GPGGA,210821.000,4451.0975,N,12314.1876,W,1,05,2.4,87.7,M,-20.6,M,,0000*56

$GPGSA,A,3,28,04,17,20,02,,,,,,,,3.1,2.4,1.9*36

$GPRMC,210821.000,A,4451.0975,N,12314.1876,W,0.72,251.74,161106,,*1A

$GPGGA,210822.000,4451.0974,N,12314.1878,W,1,05,2.4,87.6,M,-20.6,M,,0000*5B

$GPGSA,A,3,28,04,17,20,02,,,,,,,,3.1,2.4,1.9*36

$GPRMC,210822.000,A,4451.0974,N,12314.1878,W,0.40,279.76,161106,,*1F

$GPGGA,210823.000,4451.0974,N,12314.1875,W,1,05,2.4,88.0,M,-20.6,M,,0000*5E

$GPGSA,A,3,28,04,17,20,02,,,,,,,,3.1,2.4,1.9*36

$GPRMC,210823.000,A,4451.0974,N,12314.1875,W,0.78,254.47,161106,,*15

$GPGGA,210824.000,4451.0974,N,12314.1872,W,1,05,2.4,88.4,M,-20.6,M,,0000*5A

$GPGSA,A,3,28,04,17,20,02,,,,,,,,3.1,2.4,1.9*36

$GPRMC,210824.000,A,4451.0974,N,12314.1872,W,0.23,17.49,161106,,*20

$GPGGA,210825.000,4451.0974,N,12314.1866,W,1,05,2.4,89.1,M,-20.6,M,,0000*5A

$GPGSA,A,3,28,04,17,20,02,,,,,,,,3.1,2.4,1.9*36

$GPGSV,3,1,09,09,57,272,,04,52,126,37,17,44,055,42,05,31,297,*77

$GPGSV,3,2,09,24,29,051,,02,29,175,25,28,11,104,35,31,09,062,*73

$GPGSV,3,3,09,20,05,051,23*42

$GPRMC,210825.000,A,4451.0974,N,12314.1866,W,0.03,283.21,161106,,*17

$GPGGA,210826.000,4451.0975,N,12314.1862,W,1,05,2.4,89.5,M,-20.6,M,,0000*58

$GPGSA,A,3,28,04,17,20,02,,,,,,,,3.1,2.4,1.9*36

$GPRMC,210826.000,A,4451.0975,N,12314.1862,W,0.27,62.99,161106,,*29

$GPGGA,210827.000,4451.0975,N,12314.1867,W,1,05,2.4,89.2,M,-20.6,M,,0000*5B

$GPGSA,A,3,28,04,17,20,02,,,,,,,,3.1,2.4,1.9*36

$GPRMC,210827.000,A,4451.0975,N,12314.1867,W,0.35,239.07,161106,,*15

$GPGGA,210828.000,4451.0975,N,12314.1863,W,1,05,2.4,89.6,M,-20.6,M,,0000*54

$GPGSA,A,3,28,04,17,20,02,,,,,,,,3.1,2.4,1.9*36

$GPRMC,210828.000,A,4451.0975,N,12314.1863,W,0.18,32.50,161106,,*2A

$GPGGA,210829.000,4451.0975,N,12314.1859,W,1,05,2.4,90.2,M,-20.6,M,,0000*50

$GPGSA,A,3,28,04,17,20,02,,,,,,,,3.1,2.4,1.9*36

$GPRMC,210829.000,A,4451.0975,N,12314.1859,W,0.07,92.18,161106,,*2A

$GPGGA,210830.000,4451.0975,N,12314.1855,W,1,05,2.4,90.8,M,-20.6,M,,0000*5E

$GPGSA,A,3,28,04,17,20,02,,,,,,,,3.1,2.4,1.9*36

$GPGSV,3,1,09,09,57,272,,04,52,126,37,17,44,055,41,05,31,297,13*76

$GPGSV,3,2,09,24,29,051,,02,29,175,24,28,11,104,35,31,09,062,*72

$GPGSV,3,3,09,20,05,051,25*44

$GPRMC,210830.000,A,4451.0975,N,12314.1855,W,0.60,72.75,161106,,*2A

$GPGGA,210831.000,4451.0975,N,12314.1850,W,1,05,2.4,91.2,M,-20.6,M,,0000*51

$GPGSA,A,3,28,04,17,20,02,,,,,,,,3.1,2.4,1.9*36

$GPRMC,210831.000,A,4451.0975,N,12314.1850,W,0.55,87.89,161106,,*21

$GPGGA,210832.000,4451.0975,N,12314.1844,W,1,05,2.4,91.9,M,-20.6,M,,0000*5C

$GPGSA,A,3,28,04,17,20,02,,,,,,,,3.1,2.4,1.9*36

$GPRMC,210832.000,A,4451.0975,N,12314.1844,W,1.20,74.22,161106,,*29

$GPGGA,210833.000,4451.0975,N,12314.1845,W,1,05,2.4,91.9,M,-20.6,M,,0000*5C

$GPGSA,A,3,28,04,17,20,02,,,,,,,,3.1,2.4,1.9*36

$GPRMC,210833.000,A,4451.0975,N,12314.1845,W,0.83,88.66,161106,,*22

$GPGGA,210834.000,4451.0975,N,12314.1846,W,1,05,2.4,92.1,M,-20.6,M,,0000*53

$GPGSA,A,3,28,04,17,20,02,,,,,,,,3.1,2.4,1.9*36

$GPRMC,210834.000,A,4451.0975,N,12314.1846,W,0.26,142.42,161106,,*18

$GPGGA,210835.000,4451.0975,N,12314.1841,W,1,05,2.4,92.7,M,-20.6,M,,0000*53

$GPGSA,A,3,28,04,17,20,02,,,,,,,,3.1,2.4,1.9*36

$GPGSV,3,1,09,09,57,272,,04,52,126,38,17,44,055,41,05,31,297,10*7A

$GPGSV,3,2,09,24,29,051,,02,29,175,24,28,11,104,34,31,09,062,*73

$GPGSV,3,3,09,20,05,051,26*47

$GPRMC,210835.000,A,4451.0975,N,12314.1841,W,0.25,102.98,161106,,*1E

$GPGGA,210836.000,4451.0975,N,12314.1839,W,1,05,2.4,93.1,M,-20.6,M,,0000*58

$GPGSA,A,3,28,04,17,20,02,,,,,,,,3.1,2.4,1.9*36

$GPRMC,210836.000,A,4451.0975,N,12314.1839,W,0.20,103.39,161106,,*1D

$GPGGA,210837.000,4451.0974,N,12314.1839,W,1,05,2.4,93.4,M,-20.6,M,,0000*5D

$GPGSA,A,3,28,04,17,20,02,,,,,,,,3.1,2.4,1.9*36

$GPRMC,210837.000,A,4451.0974,N,12314.1839,W,0.31,216.61,161106,,*17

$GPGGA,210838.000,4451.0974,N,12314.1837,W,1,05,2.4,93.7,M,-20.6,M,,0000*5F

$GPGSA,A,3,28,04,17,20,02,,,,,,,,3.1,2.4,1.9*36

$GPRMC,210838.000,A,4451.0974,N,12314.1837,W,0.08,117.85,161106,,*14

$GPGGA,210839.000,4451.0974,N,12314.1834,W,1,05,2.4,94.2,M,-20.6,M,,0000*5F

$GPGSA,A,3,28,04,17,20,02,,,,,,,,3.1,2.4,1.9*36

$GPRMC,210839.000,A,4451.0974,N,12314.1834,W,0.27,224.83,161106,,*1E

$GPGGA,210840.000,4451.0974,N,12314.1837,W,1,05,2.4,94.1,M,-20.6,M,,0000*51

$GPGSA,A,3,28,04,17,20,02,,,,,,,,3.1,2.4,1.9*36

$GPGSV,3,1,09,09,57,272,,04,52,126,38,17,44,055,41,05,31,297,*7B

$GPGSV,3,2,09,24,29,051,,02,29,175,24,28,11,104,34,31,09,062,*73

$GPGSV,3,3,09,20,05,051,27*46

$GPRMC,210840.000,A,4451.0974,N,12314.1837,W,0.45,245.37,161106,,*1F

$GPGGA,210841.000,4451.0974,N,12314.1845,W,1,05,2.4,93.7,M,-20.6,M,,0000*54

$GPGSA,A,3,28,04,17,20,02,,,,,,,,3.1,2.4,1.9*36

$GPRMC,210841.000,A,4451.0974,N,12314.1845,W,0.67,253.01,161106,,*19

$GPGGA,210842.000,4451.0974,N,12314.1846,W,1,05,2.4,93.8,M,-20.6,M,,0000*5B

$GPGSA,A,3,28,04,17,20,02,,,,,,,,3.1,2.4,1.9*36

$GPRMC,210842.000,A,4451.0974,N,12314.1846,W,0.22,278.60,161106,,*16

$GPGGA,210843.000,4451.0974,N,12314.1845,W,1,05,2.4,93.9,M,-20.6,M,,0000*58

$GPGSA,A,3,28,04,17,20,02,,,,,,,,3.1,2.4,1.9*36

$GPRMC,210843.000,A,4451.0974,N,12314.1845,W,0.07,320.05,161106,,*1C

$GPGGA,210844.000,4451.0974,N,12314.1851,W,1,05,2.4,93.6,M,-20.6,M,,0000*55

$GPGSA,A,3,28,04,17,20,02,,,,,,,,3.1,2.4,1.9*36

$GPRMC,210844.000,A,4451.0974,N,12314.1851,W,0.34,257.29,161106,,*11

$GPGGA,210845.000,4451.0974,N,12314.1855,W,1,05,2.4,93.4,M,-20.6,M,,0000*52

$GPGSA,A,3,28,04,17,20,02,,,,,,,,3.1,2.4,1.9*36

$GPGSV,3,1,09,09,57,271,,04,52,126,38,17,44,055,42,05,31,297,*7B

$GPGSV,3,2,09,24,29,051,,02,29,175,24,28,11,105,34,31,09,062,*72

$GPGSV,3,3,09,20,05,050,27*47

$GPRMC,210845.000,A,4451.0974,N,12314.1855,W,0.50,257.51,161106,,*19

$GPGGA,210846.000,4451.0974,N,12314.1855,W,1,05,2.4,93.4,M,-20.6,M,,0000*51

$GPGSA,A,3,28,04,17,20,02,,,,,,,,3.1,2.4,1.9*36

$GPRMC,210846.000,A,4451.0974,N,12314.1855,W,0.15,295.14,161106,,*14

$GPGGA,210847.000,4451.0975,N,12314.1849,W,1,05,2.4,93.8,M,-20.6,M,,0000*50

$GPGSA,A,3,28,04,17,20,02,,,,,,,,3.1,2.4,1.9*36

$GPRMC,210847.000,A,4451.0975,N,12314.1849,W,0.08,25.23,161106,,*28

$GPGGA,210848.000,4451.0975,N,12314.1845,W,1,05,2.4,94.2,M,-20.6,M,,0000*5E

$GPGSA,A,3,28,04,17,20,02,,,,,,,,3.1,2.4,1.9*36

$GPRMC,210848.000,A,4451.0975,N,12314.1845,W,0.27,70.98,161106,,*26

$GPGGA,210849.000,4451.0976,N,12314.1842,W,1,05,2.4,94.4,M,-20.6,M,,0000*5D

$GPGSA,A,3,28,04,17,20,02,,,,,,,,3.1,2.4,1.9*36

$GPRMC,210849.000,A,4451.0976,N,12314.1842,W,0.49,70.17,161106,,*2C

$GPGGA,210850.000,4451.0976,N,12314.1840,W,1,05,2.4,94.5,M,-20.6,M,,0000*56

$GPGSA,A,3,28,04,17,20,02,,,,,,,,3.1,2.4,1.9*36

$GPGSV,3,1,09,09,57,271,,04,52,125,37,17,44,055,41,05,31,297,*74

$GPGSV,3,2,09,24,29,051,,02,29,175,24,28,11,105,33,31,09,062,*75

$GPGSV,3,3,09,20,05,050,26*46

$GPRMC,210850.000,A,4451.0976,N,12314.1840,W,0.34,217.72,161106,,*1C

$GPGGA,210851.000,4451.0976,N,12314.1838,W,1,05,2.4,94.7,M,-20.6,M,,0000*5A

$GPGSA,A,3,28,04,17,20,02,,,,,,,,3.1,2.4,1.9*36

$GPRMC,210851.000,A,4451.0976,N,12314.1838,W,0.20,244.44,161106,,*14

$GPGGA,210852.000,4451.0976,N,12314.1830,W,1,05,2.4,95.4,M,-20.6,M,,0000*53

$GPGSA,A,3,28,04,17,20,02,,,,,,,,3.1,2.4,1.9*36

$GPRMC,210852.000,A,4451.0976,N,12314.1830,W,0.13,71.41,161106,,*2E

$GPGGA,210853.000,4451.0977,N,12314.1816,W,1,05,2.4,96.4,M,-20.6,M,,0000*54

$GPGSA,A,3,28,04,17,20,02,,,,,,,,3.1,2.4,1.9*36

$GPRMC,210853.000,A,4451.0977,N,12314.1816,W,0.58,73.39,161106,,*28

$GPGGA,210854.000,4451.0978,N,12314.1802,W,1,05,2.4,97.4,M,-20.6,M,,0000*58

$GPGSA,A,3,28,04,17,20,02,,,,,,,,3.1,2.4,1.9*36

$GPRMC,210854.000,A,4451.0978,N,12314.1802,W,1.12,75.04,161106,,*22

$GPGGA,210855.000,4451.0978,N,12314.1788,W,1,05,2.4,98.4,M,-20.6,M,,0000*5B

$GPGSA,A,3,28,04,17,20,02,,,,,,,,3.1,2.4,1.9*36

$GPGSV,3,1,09,09,57,271,,04,52,125,37,17,44,055,41,05,31,297,*74

$GPGSV,3,2,09,24,29,051,,02,29,175,24,28,11,105,32,31,09,062,*74

$GPGSV,3,3,09,20,05,050,27*47

$GPRMC,210855.000,A,4451.0978,N,12314.1788,W,1.22,82.60,161106,,*27

$GPGGA,210856.000,4451.0979,N,12314.1777,W,1,05,2.4,99.3,M,-20.6,M,,0000*5F

$GPGSA,A,3,28,04,17,20,02,,,,,,,,3.1,2.4,1.9*36

$GPRMC,210856.000,A,4451.0979,N,12314.1777,W,1.13,86.56,161106,,*26

$GPGGA,210857.000,4451.0979,N,12314.1766,W,1,05,2.4,100.1,M,-20.6,M,,0000*6D

$GPGSA,A,3,28,04,17,20,02,,,,,,,,3.1,2.4,1.9*36

$GPRMC,210857.000,A,4451.0979,N,12314.1766,W,0.62,105.29,161106,,*12

$GPGGA,210858.000,4451.0979,N,12314.1758,W,1,05,2.4,100.8,M,-20.6,M,,0000*66

$GPGSA,A,3,28,04,17,20,02,,,,,,,,3.1,2.4,1.9*36

$GPRMC,210858.000,A,4451.0979,N,12314.1758,W,0.30,147.53,161106,,*1C

$GPGGA,210859.000,4451.0979,N,12314.1753,W,1,05,2.4,101.3,M,-20.6,M,,0000*66

$GPGSA,A,3,28,04,17,20,02,,,,,,,,3.1,2.4,1.9*36

$GPRMC,210859.000,A,4451.0979,N,12314.1753,W,0.23,112.69,161106,,*1D

