$GPGGA,034838.341,4451.091,N,12314.155,W,1,12,1.0,0.0,M,0.0,M,,*76
$GPGSA,A,3,01,02,03,04,05,06,07,08,09,10,11,12,1.0,1.0,1.0*30
$GPRMC,034838.341,A,4451.091,N,12314.155,W,179.5,168.2,300123,000.0,W*66
$GPGGA,034839.341,4451.042,N,12314.145,W,1,12,1.0,0.0,M,0.0,M,,*78
$GPGSA,A,3,01,02,03,04,05,06,07,08,09,10,11,12,1.0,1.0,1.0*30
$GPRMC,034839.341,A,4451.042,N,12314.145,W,411.0,089.7,300123,000.0,W*6D
$GPGGA,034840.341,4451.043,N,12313.984,W,1,12,1.0,0.0,M,0.0,M,,*75
$GPGSA,A,3,01,02,03,04,05,06,07,08,09,10,11,12,1.0,1.0,1.0*30
$GPRMC,034840.341,A,4451.043,N,12313.984,W,572.1,090.0,300123,000.0,W*6A
$GPGGA,034841.341,4451.043,N,12313.760,W,1,12,1.0,0.0,M,0.0,M,,*70
$GPGSA,A,3,01,02,03,04,05,06,07,08,09,10,11,12,1.0,1.0,1.0*30
$GPRMC,034841.341,A,4451.043,N,12313.760,W,473.5,179.4,300123,000.0,W*69
$GPGGA,034842.341,4450.911,N,12313.758,W,1,12,1.0,0.0,M,0.0,M,,*77
$GPGSA,A,3,01,02,03,04,05,06,07,08,09,10,11,12,1.0,1.0,1.0*30
$GPRMC,034842.341,A,4450.911,N,12313.758,W,1364.7,090.5,300123,000.0,W*5B
$GPGGA,034843.341,4450.907,N,12313.224,W,1,12,1.0,0.0,M,0.0,M,,*7F
$GPGSA,A,3,01,02,03,04,05,06,07,08,09,10,11,12,1.0,1.0,1.0*30
$GPRMC,034843.341,A,4450.907,N,12313.224,W,098.7,067.7,300123,000.0,W*68
$GPGGA,034844.341,4450.920,N,12313.191,W,1,12,1.0,0.0,M,0.0,M,,*70
$GPGSA,A,3,01,02,03,04,05,06,07,08,09,10,11,12,1.0,1.0,1.0*30
$GPRMC,034844.341,A,4450.920,N,12313.191,W,097.8,026.7,300123,000.0,W*62
$GPGGA,034845.341,4450.946,N,12313.178,W,1,12,1.0,0.0,M,0.0,M,,*76
$GPGSA,A,3,01,02,03,04,05,06,07,08,09,10,11,12,1.0,1.0,1.0*30
$GPRMC,034845.341,A,4450.946,N,12313.178,W,342.0,358.5,300123,000.0,W*6F
$GPGGA,034846.341,4451.041,N,12313.180,W,1,12,1.0,0.0,M,0.0,M,,*7D
$GPGSA,A,3,01,02,03,04,05,06,07,08,09,10,11,12,1.0,1.0,1.0*30
$GPRMC,034846.341,A,4451.041,N,12313.180,W,106.0,038.8,300123,000.0,W*6E
$GPGGA,034847.341,4451.066,N,12313.160,W,1,12,1.0,0.0,M,0.0,M,,*77
$GPGSA,A,3,01,02,03,04,05,06,07,08,09,10,11,12,1.0,1.0,1.0*30
$GPRMC,034847.341,A,4451.066,N,12313.160,W,111.6,080.2,300123,000.0,W*6D
$GPGGA,034848.341,4451.074,N,12313.117,W,1,12,1.0,0.0,M,0.0,M,,*7B
$GPGSA,A,3,01,02,03,04,05,06,07,08,09,10,11,12,1.0,1.0,1.0*30
$GPRMC,034848.341,A,4451.074,N,12313.117,W,184.2,090.7,300123,000.0,W*6D
$GPGGA,034849.341,4451.073,N,12313.045,W,1,12,1.0,0.0,M,0.0,M,,*7B
$GPGSA,A,3,01,02,03,04,05,06,07,08,09,10,11,12,1.0,1.0,1.0*30
$GPRMC,034849.341,A,4451.073,N,12313.045,W,879.6,090.0,300123,000.0,W*65
$GPGGA,034850.341,4451.073,N,12312.701,W,1,12,1.0,0.0,M,0.0,M,,*75
$GPGSA,A,3,01,02,03,04,05,06,07,08,09,10,11,12,1.0,1.0,1.0*30
$GPRMC,034850.341,A,4451.073,N,12312.701,W,466.9,090.3,300123,000.0,W*65
$GPGGA,034851.341,4451.072,N,12312.518,W,1,12,1.0,0.0,M,0.0,M,,*7F
$GPGSA,A,3,01,02,03,04,05,06,07,08,09,10,11,12,1.0,1.0,1.0*30
$GPRMC,034851.341,A,4451.072,N,12312.518,W,414.3,089.4,300123,000.0,W*6F
$GPGGA,034852.341,4451.074,N,12312.356,W,1,12,1.0,0.0,M,0.0,M,,*76
$GPGSA,A,3,01,02,03,04,05,06,07,08,09,10,11,12,1.0,1.0,1.0*30
$GPRMC,034852.341,A,4451.074,N,12312.356,W,355.2,091.1,300123,000.0,W*69
$GPGGA,034853.341,4451.071,N,12312.217,W,1,12,1.0,0.0,M,0.0,M,,*76
$GPGSA,A,3,01,02,03,04,05,06,07,08,09,10,11,12,1.0,1.0,1.0*30
$GPRMC,034853.341,A,4451.071,N,12312.217,W,434.0,090.3,300123,000.0,W*68
$GPGGA,034854.341,4451.070,N,12312.047,W,1,12,1.0,0.0,M,0.0,M,,*77
$GPGSA,A,3,01,02,03,04,05,06,07,08,09,10,11,12,1.0,1.0,1.0*30
$GPRMC,034854.341,A,4451.070,N,12312.047,W,463.6,090.0,300123,000.0,W*6E
$GPGGA,034855.341,4451.070,N,12311.865,W,1,12,1.0,0.0,M,0.0,M,,*7D
$GPGSA,A,3,01,02,03,04,05,06,07,08,09,10,11,12,1.0,1.0,1.0*30
$GPRMC,034855.341,A,4451.070,N,12311.865,W,424.2,089.7,300123,000.0,W*6C
$GPGGA,034856.341,4451.071,N,12311.699,W,1,12,1.0,0.0,M,0.0,M,,*72
$GPGSA,A,3,01,02,03,04,05,06,07,08,09,10,11,12,1.0,1.0,1.0*30
$GPRMC,034856.341,A,4451.071,N,12311.699,W,486.8,091.1,300123,000.0,W*6E
$GPGGA,034857.341,4451.067,N,12311.509,W,1,12,1.0,0.0,M,0.0,M,,*7E
$GPGSA,A,3,01,02,03,04,05,06,07,08,09,10,11,12,1.0,1.0,1.0*30
$GPRMC,034857.341,A,4451.067,N,12311.509,W,569.3,088.4,300123,000.0,W*64
$GPGGA,034858.341,4451.074,N,12311.286,W,1,12,1.0,0.0,M,0.0,M,,*73
$GPGSA,A,3,01,02,03,04,05,06,07,08,09,10,11,12,1.0,1.0,1.0*30
$GPRMC,034858.341,A,4451.074,N,12311.286,W,532.8,090.8,300123,000.0,W*69
$GPGGA,034859.341,4451.071,N,12311.077,W,1,12,1.0,0.0,M,0.0,M,,*7B
$GPGSA,A,3,01,02,03,04,05,06,07,08,09,10,11,12,1.0,1.0,1.0*30
$GPRMC,034859.341,A,4451.071,N,12311.077,W,706.9,000.4,300123,000.0,W*60
$GPGGA,034900.341,4451.267,N,12311.076,W,1,12,1.0,0.0,M,0.0,M,,*72
$GPGSA,A,3,01,02,03,04,05,06,07,08,09,10,11,12,1.0,1.0,1.0*30
$GPRMC,034900.341,A,4451.267,N,12311.076,W,795.7,358.7,300123,000.0,W*60
$GPGGA,034901.341,4451.488,N,12311.081,W,1,12,1.0,0.0,M,0.0,M,,*7C
$GPGSA,A,3,01,02,03,04,05,06,07,08,09,10,11,12,1.0,1.0,1.0*30
$GPRMC,034901.341,A,4451.488,N,12311.081,W,756.2,269.8,300123,000.0,W*68
$GPGGA,034902.341,4451.487,N,12311.377,W,1,12,1.0,0.0,M,0.0,M,,*7A
$GPGSA,A,3,01,02,03,04,05,06,07,08,09,10,11,12,1.0,1.0,1.0*30
$GPRMC,034902.341,A,4451.487,N,12311.377,W,881.1,180.0,300123,000.0,W*64
$GPGGA,034903.341,4451.243,N,12311.377,W,1,12,1.0,0.0,M,0.0,M,,*75
$GPGSA,A,3,01,02,03,04,05,06,07,08,09,10,11,12,1.0,1.0,1.0*30
$GPRMC,034903.341,A,4451.243,N,12311.377,W,063.5,105.5,300123,000.0,W*63
$GPGGA,034904.341,4451.236,N,12311.354,W,1,12,1.0,0.0,M,0.0,M,,*71
$GPGSA,A,3,01,02,03,04,05,06,07,08,09,10,11,12,1.0,1.0,1.0*30
$GPRMC,034904.341,A,4451.236,N,12311.354,W,044.7,077.7,300123,000.0,W*66
$GPGGA,034905.341,4451.240,N,12311.337,W,1,12,1.0,0.0,M,0.0,M,,*74
$GPGSA,A,3,01,02,03,04,05,06,07,08,09,10,11,12,1.0,1.0,1.0*30
$GPRMC,034905.341,A,4451.240,N,12311.337,W,493.2,180.5,300123,000.0,W*63
$GPGGA,034906.341,4451.103,N,12311.339,W,1,12,1.0,0.0,M,0.0,M,,*7D
$GPGSA,A,3,01,02,03,04,05,06,07,08,09,10,11,12,1.0,1.0,1.0*30
$GPRMC,034906.341,A,4451.103,N,12311.339,W,112.0,175.3,300123,000.0,W*68
$GPGGA,034907.341,4451.072,N,12311.336,W,1,12,1.0,0.0,M,0.0,M,,*74
$GPGSA,A,3,01,02,03,04,05,06,07,08,09,10,11,12,1.0,1.0,1.0*30
$GPRMC,034907.341,A,4451.072,N,12311.336,W,112.0,175.3,300123,000.0,W*61
